{"10010":{"name":"JAN MAYEN","country":"JAN MAYEN","lat":70.933,"lon":-8.667,"elev":9},"10015":{"name":"BRINGELAND","country":"NORWAY","lat":61.383,"lon":5.867,"elev":327},"10030":{"name":"HORNSUND","country":"SVALBARD","lat":77,"lon":15.5,"elev":12},"10080":{"name":"SVALBARD LUFTHAVN","country":"SVALBARD","lat":78.25,"lon":15.467,"elev":29},"10100":{"name":"ANDOYA","country":"NORWAY","lat":69.3,"lon":16.133,"elev":14},"10230":{"name":"BARDUFOSS","country":"NORWAY","lat":69.067,"lon":18.533,"elev":79},"10250":{"name":"TROMSO/LANGNES","country":"NORWAY","lat":69.683,"lon":18.917,"elev":10},"10260":{"name":"TROMSO","country":"NORWAY","lat":69.65,"lon":18.933,"elev":115},"10280":{"name":"BJORNOYA","country":"SVALBARD","lat":74.517,"lon":19.017,"elev":16},"10300":{"name":"DATSAV3 VIRT STATION (NORWAY)","country":"NORWAY","lat":64.85,"lon":11.233,"elev":0},"10330":{"name":"TORSVAG FYR","country":"NORWAY","lat":70.25,"lon":19.5,"elev":24},"10460":{"name":"SORKJOSEN","country":"NORWAY","lat":69.783,"lon":20.967,"elev":6},"10470":{"name":"KAUTOKEINO","country":"NORWAY","lat":69,"lon":23.033,"elev":307},"10490":{"name":"ALTA LUFTHAVN","country":"NORWAY","lat":69.983,"lon":23.367,"elev":3},"10520":{"name":"HAMMERFEST","country":"NORWAY","lat":70.667,"lon":23.667,"elev":81},"10530":{"name":"HAMMERFEST RADIO","country":"NORWAY","lat":70.683,"lon":23.683,"elev":70},"10550":{"name":"FRUHOLMEN FYR","country":"NORWAY","lat":71.1,"lon":24,"elev":14},"10590":{"name":"BANAK","country":"NORWAY","lat":70.067,"lon":24.983,"elev":8},"10610":{"name":"BRENNELV","country":"NORWAY","lat":70.067,"lon":25.117,"elev":34},"10620":{"name":"HOPEN","country":"SVALBARD","lat":76.5,"lon":25.067,"elev":10},"10780":{"name":"SLETTNES FYR","country":"NORWAY","lat":71.1,"lon":28.217,"elev":10},"10880":{"name":"VADSO","country":"NORWAY","lat":70.067,"lon":29.85,"elev":39},"10890":{"name":"KIRKENES","country":"NORWAY","lat":69.733,"lon":29.9,"elev":91},"10980":{"name":"VARDO","country":"NORWAY","lat":70.367,"lon":31.1,"elev":15},"11020":{"name":"SKLINNA FYR","country":"NORWAY","lat":65.2,"lon":11,"elev":16},"11025":{"name":"HEIDRUN","country":"NORWAY","lat":65.333,"lon":7.317,"elev":80},"11050":{"name":"SKOMVAER FYR","country":"NORWAY","lat":67.417,"lon":11.883,"elev":18},"11060":{"name":"ROEST III","country":"NORWAY","lat":67.517,"lon":12.1,"elev":2},"11120":{"name":"BRONNOYSUND/BRONNOY","country":"NORWAY","lat":65.467,"lon":12.217,"elev":9},"11150":{"name":"MYKEN","country":"NORWAY","lat":66.767,"lon":12.483,"elev":13},"11160":{"name":"SANDNESSJOEN/STOKKA","country":"NORWAY","lat":65.967,"lon":12.467,"elev":17},"11220":{"name":"MOSJOEN KJAERSTAD","country":"NORWAY","lat":65.783,"lon":13.217,"elev":73},"11510":{"name":"MO I RANA/ROSSVOLL","country":"NORWAY","lat":66.367,"lon":14.3,"elev":70},"11520":{"name":"BODO VI","country":"NORWAY","lat":67.267,"lon":14.367,"elev":13},"11600":{"name":"SKROVA FYR","country":"NORWAY","lat":68.15,"lon":14.65,"elev":11},"11620":{"name":"STORKMARKNES/SKAGEN","country":"NORWAY","lat":68.583,"lon":15.017,"elev":3},"11670":{"name":"SORTLAND","country":"NORWAY","lat":68.7,"lon":15.417,"elev":3},"11830":{"name":"EVENES","country":"NORWAY","lat":68.517,"lon":16.683,"elev":26},"11940":{"name":"NARVIK III","country":"NORWAY","lat":68.467,"lon":17.5,"elev":23},"12050":{"name":"SVINOY FYR","country":"NORWAY","lat":62.333,"lon":5.267,"elev":41},"12100":{"name":"ALESUND/VIGRA","country":"NORWAY","lat":62.567,"lon":6.117,"elev":22},"12120":{"name":"ONA II","country":"NORWAY","lat":62.867,"lon":6.533,"elev":15},"12170":{"name":"MOLDE/ARO","country":"NORWAY","lat":62.75,"lon":7.267,"elev":3},"12230":{"name":"KRISTIANSUND/KVERNB","country":"NORWAY","lat":63.117,"lon":7.833,"elev":62},"12280":{"name":"SULA","country":"NORWAY","lat":63.85,"lon":8.467,"elev":6},"12350":{"name":"DOMBAS-KIRKENAER","country":"NORWAY","lat":62.083,"lon":9.133,"elev":645},"12380":{"name":"FOKSTUA II","country":"NORWAY","lat":62.117,"lon":9.283,"elev":974},"12410":{"name":"ORLAND III","country":"NORWAY","lat":63.7,"lon":9.6,"elev":7},"12710":{"name":"TRONDHEIM/VERNES","country":"NORWAY","lat":63.467,"lon":10.933,"elev":17},"12900":{"name":"NAMSOS LUFTHAVN","country":"NORWAY","lat":64.467,"lon":11.583,"elev":2},"13000":{"name":"GULLFAKS C","country":"NORWAY","lat":61.2,"lon":2.267,"elev":78},"13060":{"name":"HELLISOY FYR","country":"NORWAY","lat":60.75,"lon":4.717,"elev":23},"13100":{"name":"FLORO","country":"NORWAY","lat":61.583,"lon":5.033,"elev":9},"13110":{"name":"BERGEN/FLESLAND","country":"NORWAY","lat":60.283,"lon":5.233,"elev":50},"13170":{"name":"BERGEN/FLORIDA","country":"NORWAY","lat":60.383,"lon":5.333,"elev":36},"13200":{"name":"SANDANE/ANDA","country":"NORWAY","lat":61.833,"lon":6.117,"elev":60},"13610":{"name":"FANARAKEN","country":"NORWAY","lat":61.517,"lon":7.9,"elev":2062},"13670":{"name":"FAGERNES","country":"NORWAY","lat":60.983,"lon":9.233,"elev":365},"13755":{"name":"GULLFAX (PLATFORM)","country":"NORWAY","lat":61.033,"lon":2.033,"elev":10},"13820":{"name":"KISE PA HEDMARK","country":"NORWAY","lat":60.767,"lon":10.817,"elev":128},"13840":{"name":"OSLO/GARDERMOEN","country":"NORWAY","lat":60.2,"lon":11.083,"elev":204},"14000":{"name":"EKOFISK","country":"NORWAY","lat":56.9,"lon":3.35,"elev":29},"14030":{"name":"UTSIRA FYR","country":"NORWAY","lat":59.3,"lon":4.883,"elev":56},"14033":{"name":"EKOFISK OIL PLTFRM","country":"NORWAY","lat":56.55,"lon":3.25,"elev":3},"14060":{"name":"SLATTEROY FYR","country":"NORWAY","lat":59.917,"lon":5.067,"elev":16},"14080":{"name":"HAUGESUND/KARMOY","country":"NORWAY","lat":59.35,"lon":5.217,"elev":24},"14150":{"name":"STAVANGER/SOLA","country":"NORWAY","lat":58.883,"lon":5.633,"elev":9},"14270":{"name":"LISTA FYR","country":"NORWAY","lat":58.117,"lon":6.567,"elev":14},"14420":{"name":"BYGLANDSFJORD","country":"NORWAY","lat":58.667,"lon":7.8,"elev":211},"14480":{"name":"OKSOY FYR","country":"NORWAY","lat":58.067,"lon":8.05,"elev":8},"14520":{"name":"KRISTIANSAND/KJEVIK","country":"NORWAY","lat":58.2,"lon":8.083,"elev":17},"14650":{"name":"TORUNGEN FYR","country":"NORWAY","lat":58.4,"lon":8.8,"elev":15},"14670":{"name":"LYNGOR FYR","country":"NORWAY","lat":58.633,"lon":9.15,"elev":5},"14770":{"name":"KONGSBERG IV","country":"NORWAY","lat":59.667,"lon":9.65,"elev":169},"14820":{"name":"FERDER FYR","country":"NORWAY","lat":59.033,"lon":10.533,"elev":8},"14825":{"name":"TORP","country":"NORWAY","lat":59.2,"lon":10.267,"elev":88},"14830":{"name":"TORP","country":"NORWAY","lat":59.2,"lon":10.267,"elev":88},"14843":{"name":"OSEBERG","country":"NORWAY","lat":59.317,"lon":10.45,"elev":15},"14880":{"name":"OSLO/FORNEBU","country":"NORWAY","lat":59.9,"lon":10.617,"elev":17},"14920":{"name":"OSLO-BLINDERN","country":"NORWAY","lat":59.95,"lon":10.717,"elev":96},"14940":{"name":"RYGGE","country":"NORWAY","lat":59.383,"lon":10.783,"elev":53},"20120":{"name":"RITSEM","country":"SWEDEN","lat":67.733,"lon":17.467,"elev":521},"20130":{"name":"RITSEM","country":"SWEDEN","lat":67.733,"lon":17.467,"elev":533},"20200":{"name":"KATTERJAKK","country":"SWEDEN","lat":68.417,"lon":18.167,"elev":517},"20240":{"name":"STORA SJOFALLET","country":"SWEDEN","lat":67.5,"lon":18.3,"elev":425},"20430":{"name":"ESRANGE","country":"SWEDEN","lat":67.933,"lon":21.067,"elev":341},"20440":{"name":"KIRUNA","country":"SWEDEN","lat":67.817,"lon":20.333,"elev":447},"20490":{"name":"GALLIVARE","country":"SWEDEN","lat":67.15,"lon":20.65,"elev":360},"20500":{"name":"KATTERJAKK","country":"SWEDEN","lat":68.417,"lon":18.167,"elev":517},"20550":{"name":"NAIMAKKA","country":"SWEDEN","lat":68.683,"lon":21.533,"elev":402},"20570":{"name":"KALLAX/LULEA (AFB)","country":"SWEDEN","lat":65.55,"lon":22.133,"elev":17},"20580":{"name":"HAPARANDA","country":"SWEDEN","lat":65.833,"lon":24.15,"elev":7},"20600":{"name":"NAIMAKKA","country":"SWEDEN","lat":68.683,"lon":21.533,"elev":403},"20620":{"name":"OSTERSUND FROSON AB","country":"SWEDEN","lat":63.183,"lon":14.5,"elev":376},"20640":{"name":"SAITTAROVA","country":"SWEDEN","lat":67.333,"lon":22.233,"elev":240},"20650":{"name":"SVEG","country":"SWEDEN","lat":62.033,"lon":14.367,"elev":360},"20660":{"name":"SUNDSVALL/HARNOSAND","country":"SWEDEN","lat":62.533,"lon":17.45,"elev":4},"20690":{"name":"SODERHAMN (SWE-AFB)","country":"SWEDEN","lat":61.267,"lon":17.1,"elev":26},"20730":{"name":"KARLSTAD","country":"SWEDEN","lat":59.367,"lon":13.467,"elev":46},"20740":{"name":"OREBRO/EKEBY","country":"SWEDEN","lat":59.267,"lon":15.333,"elev":33},"20750":{"name":"VASTERAS/HASSLO AFB","country":"SWEDEN","lat":59.583,"lon":16.633,"elev":6},"20760":{"name":"UPPSALA","country":"SWEDEN","lat":59.883,"lon":17.6,"elev":21},"20770":{"name":"STOCKHOLM/BROMMA","country":"SWEDEN","lat":59.35,"lon":17.95,"elev":15},"20790":{"name":"SATENAS (SWE-AFB)","country":"SWEDEN","lat":58.433,"lon":12.7,"elev":54},"20800":{"name":"KARESUANDO","country":"SWEDEN","lat":68.45,"lon":22.45,"elev":331},"20820":{"name":"LANDSORT","country":"SWEDEN","lat":58.75,"lon":17.867,"elev":32},"20830":{"name":"GOTSKA SANDON","country":"SWEDEN","lat":58.4,"lon":19.2,"elev":12},"20840":{"name":"LANNAVAARA","country":"SWEDEN","lat":68.05,"lon":22,"elev":360},"20860":{"name":"LAINIO","country":"SWEDEN","lat":67.767,"lon":22.35,"elev":325},"20870":{"name":"JONKOPING","country":"SWEDEN","lat":57.767,"lon":14.083,"elev":226},"20880":{"name":"KOMPELUSVAARA","country":"SWEDEN","lat":67.083,"lon":22.217,"elev":263},"20890":{"name":"OLANDS NORRA UDDE","country":"SWEDEN","lat":57.367,"lon":17.1,"elev":4},"20900":{"name":"VISBY","country":"SWEDEN","lat":57.667,"lon":18.35,"elev":51},"20910":{"name":"KULLEN (LGT-H)","country":"SWEDEN","lat":56.3,"lon":12.45,"elev":72},"20920":{"name":"MUODOSLOMPOLO","country":"SWEDEN","lat":67.95,"lon":23.467,"elev":240},"20940":{"name":"UNGSKAR","country":"SWEDEN","lat":56.033,"lon":15.8,"elev":1},"20950":{"name":"KALMAR","country":"SWEDEN","lat":56.683,"lon":16.3,"elev":6},"20960":{"name":"PAJALA","country":"SWEDEN","lat":67.217,"lon":23.4,"elev":168},"20980":{"name":"MALMO/STURUP","country":"SWEDEN","lat":55.55,"lon":13.367,"elev":72},"20990":{"name":"YSTAD","country":"SWEDEN","lat":55.433,"lon":13.833,"elev":34},"21020":{"name":"STEKENJOKK","country":"SWEDEN","lat":65.099,"lon":14.517,"elev":1036},"21040":{"name":"HEMAVAN","country":"SWEDEN","lat":65.8,"lon":15.1,"elev":473},"21080":{"name":"KLIMPFJALL","country":"SWEDEN","lat":65.067,"lon":14.8,"elev":560},"21150":{"name":"STORLIEN-VISJOVALE","country":"SWEDEN","lat":63.3,"lon":12.133,"elev":640},"21170":{"name":"NORDMALING","country":"SWEDEN","lat":63.567,"lon":19.5,"elev":6},"21190":{"name":"UMEA","country":"SWEDEN","lat":63.8,"lon":20.283,"elev":7},"21200":{"name":"KVIKKJOKK-ARRENJARK","country":"SWEDEN","lat":66.883,"lon":17.75,"elev":315},"21230":{"name":"EDSBYN","country":"SWEDEN","lat":61.383,"lon":15.833,"elev":163},"21250":{"name":"OSTMARK","country":"SWEDEN","lat":60.317,"lon":12.7,"elev":178},"21280":{"name":"GUNNARN","country":"SWEDEN","lat":65.016,"lon":17.683,"elev":283},"21290":{"name":"GUNNARN SOL (AUT)","country":"SWEDEN","lat":64.967,"lon":17.7,"elev":278},"21330":{"name":"SNAVLUNDA","country":"SWEDEN","lat":58.967,"lon":14.9,"elev":144},"21350":{"name":"BURESJON","country":"SWEDEN","lat":65.567,"lon":17.867,"elev":393},"21440":{"name":"ABRAUR","country":"SWEDEN","lat":65.9,"lon":19.1,"elev":342},"21470":{"name":"MALA-BRANNAN","country":"SWEDEN","lat":65.15,"lon":18.6,"elev":363},"21480":{"name":"NORRKOPING/BRAVALLA","country":"SWEDEN","lat":58.617,"lon":16.117,"elev":27},"21490":{"name":"ARVIDSJAUR","country":"SWEDEN","lat":65.6,"lon":19.267,"elev":384},"21500":{"name":"NYKOPING/SKAVST AFB","country":"SWEDEN","lat":58.783,"lon":16.917,"elev":42},"21510":{"name":"JOKKMOKK FPL","country":"SWEDEN","lat":66.483,"lon":20.167,"elev":275},"21520":{"name":"SUDOK","country":"SWEDEN","lat":66.3,"lon":20.417,"elev":174},"21540":{"name":"VIDSEL","country":"SWEDEN","lat":65.883,"lon":20.15,"elev":182},"21550":{"name":"HAGSHULT (SWE-AFB)","country":"SWEDEN","lat":57.3,"lon":14.133,"elev":169},"21610":{"name":"NATTAVAARA","country":"SWEDEN","lat":66.75,"lon":20.933,"elev":327},"21630":{"name":"LJUNGBYHED(SWE-AFB)","country":"SWEDEN","lat":56.083,"lon":13.233,"elev":43},"21660":{"name":"RONNEBY (SWE-AFB)","country":"SWEDEN","lat":56.267,"lon":15.283,"elev":58},"21670":{"name":"FALSTERBO (LGT-H)","country":"SWEDEN","lat":55.383,"lon":12.817,"elev":5},"21730":{"name":"ALVSBYN","country":"SWEDEN","lat":65.667,"lon":21.067,"elev":43},"21740":{"name":"LAKATRASK","country":"SWEDEN","lat":66.283,"lon":21.133,"elev":186},"21760":{"name":"PITE-RONNSKAR","country":"SWEDEN","lat":65.033,"lon":21.567,"elev":4},"21810":{"name":"OVERKALIX SVARTBYN","country":"SWEDEN","lat":66.267,"lon":22.85,"elev":62},"21860":{"name":"LULEA-KALLAX","country":"SWEDEN","lat":65.55,"lon":22.133,"elev":17},"21910":{"name":"STORON","country":"SWEDEN","lat":65.7,"lon":23.1,"elev":4},"21960":{"name":"HAPARANDA","country":"SWEDEN","lat":65.833,"lon":24.15,"elev":6},"21990":{"name":"YLINENJARVI","country":"SWEDEN","lat":66.617,"lon":23.467,"elev":132},"22060":{"name":"STORLIEN","country":"SWEDEN","lat":63.3,"lon":12.117,"elev":644},"22220":{"name":"GADDEDE","country":"SWEDEN","lat":64.5,"lon":14.167,"elev":330},"22260":{"name":"OSTERSUND FROSON","country":"SWEDEN","lat":63.2,"lon":14.5,"elev":359},"22300":{"name":"GUBBHOGEN","country":"SWEDEN","lat":64.217,"lon":15.55,"elev":310},"22310":{"name":"FOLLINGE","country":"SWEDEN","lat":63.683,"lon":14.6,"elev":362},"22320":{"name":"NORRAKER","country":"SWEDEN","lat":64.45,"lon":15.6,"elev":346},"22340":{"name":"STROMSUND","country":"SWEDEN","lat":63.867,"lon":15.583,"elev":346},"22360":{"name":"HALLHAXASEN","country":"SWEDEN","lat":63.767,"lon":15.333,"elev":376},"22420":{"name":"HOTING","country":"SWEDEN","lat":64.083,"lon":16.233,"elev":241},"22440":{"name":"JUNSELE","country":"SWEDEN","lat":63.683,"lon":16.95,"elev":217},"22450":{"name":"VILHELMINA","country":"SWEDEN","lat":64.583,"lon":16.85,"elev":349},"22470":{"name":"KRANGEDE","country":"SWEDEN","lat":63.15,"lon":16.167,"elev":184},"22520":{"name":"IDVATTNET","country":"SWEDEN","lat":64.45,"lon":17.083,"elev":353},"22590":{"name":"KRAMFORS (SWE-AFB)","country":"SWEDEN","lat":63.05,"lon":17.767,"elev":19},"22600":{"name":"VASTMARKUM","country":"SWEDEN","lat":63.133,"lon":18.25,"elev":143},"22610":{"name":"LYCKSELE","country":"SWEDEN","lat":64.55,"lon":18.717,"elev":211},"22640":{"name":"FREDRIKA","country":"SWEDEN","lat":64.083,"lon":18.417,"elev":300},"22650":{"name":"HEMLING","country":"SWEDEN","lat":63.65,"lon":18.55,"elev":183},"22670":{"name":"ORNSKOLDSVIK ARPT","country":"SWEDEN","lat":63.4,"lon":18.967,"elev":103},"22690":{"name":"SKAGSUDDE","country":"SWEDEN","lat":63.183,"lon":19.017,"elev":11},"22710":{"name":"NORSJO","country":"SWEDEN","lat":64.933,"lon":19.383,"elev":310},"22740":{"name":"VINDELN","country":"SWEDEN","lat":64.217,"lon":19.717,"elev":206},"22760":{"name":"NORDMALING","country":"SWEDEN","lat":63.567,"lon":19.5,"elev":5},"22780":{"name":"SKAGSUDDE (LGT-H)","country":"SWEDEN","lat":63.183,"lon":19.017,"elev":13},"22820":{"name":"PETISTRASK","country":"SWEDEN","lat":64.566,"lon":19.7,"elev":258},"22840":{"name":"JARNASKLUBB","country":"SWEDEN","lat":63.433,"lon":19.683,"elev":7},"22860":{"name":"UMEA","country":"SWEDEN","lat":63.8,"lon":20.283,"elev":8},"22861":{"name":"SODERHAMN","country":"SWEDEN","lat":61.25,"lon":17.1,"elev":28},"22870":{"name":"HOLMON","country":"SWEDEN","lat":63.817,"lon":20.867,"elev":8},"22880":{"name":"HOLMOGADD","country":"SWEDEN","lat":63.6,"lon":20.75,"elev":6},"22930":{"name":"SKELLEFTEA","country":"SWEDEN","lat":64.599,"lon":21.067,"elev":44},"22960":{"name":"BJUROKLUBB (LGT-H)","country":"SWEDEN","lat":64.483,"lon":21.583,"elev":36},"22970":{"name":"BJUROKLUBB","country":"SWEDEN","lat":64.483,"lon":21.583,"elev":43},"22980":{"name":"SVARTEBORG","country":"SWEDEN","lat":58.567,"lon":11.55,"elev":70},"23050":{"name":"NASHUVUD","country":"SWEDEN","lat":58.9,"lon":13.25,"elev":50},"23060":{"name":"RORBACKSNAS","country":"SWEDEN","lat":61.133,"lon":12.817,"elev":459},"23160":{"name":"SARNA","country":"SWEDEN","lat":61.7,"lon":13.183,"elev":425},"23170":{"name":"DRAVAGEN","country":"SWEDEN","lat":62.1,"lon":13.617,"elev":566},"23190":{"name":"BORTNAN","country":"SWEDEN","lat":62.75,"lon":13.85,"elev":467},"23210":{"name":"ALVDALEN","country":"SWEDEN","lat":61.25,"lon":14.033,"elev":253},"23240":{"name":"SVEG","country":"SWEDEN","lat":62.017,"lon":14.367,"elev":363},"23290":{"name":"HAMRA","country":"SWEDEN","lat":61.667,"lon":15,"elev":455},"23310":{"name":"HUNGE","country":"SWEDEN","lat":62.75,"lon":15.083,"elev":343},"23330":{"name":"LJUNGBY","country":"SWEDEN","lat":56.833,"lon":13.917,"elev":155},"23360":{"name":"EDSBYN","country":"SWEDEN","lat":61.383,"lon":15.833,"elev":163},"23370":{"name":"NORRHOG","country":"SWEDEN","lat":62.283,"lon":15.667,"elev":320},"23380":{"name":"EDSBYN","country":"SWEDEN","lat":61.367,"lon":15.717,"elev":185},"23430":{"name":"TORPSHAMMAR","country":"SWEDEN","lat":62.5,"lon":16.283,"elev":100},"23470":{"name":"DELSBO","country":"SWEDEN","lat":61.833,"lon":16.55,"elev":72},"23550":{"name":"KUGGOREN","country":"SWEDEN","lat":61.7,"lon":17.533,"elev":10},"23660":{"name":"TIMRA/MIDLANDA","country":"SWEDEN","lat":62.517,"lon":17.45,"elev":8},"23680":{"name":"BRAMON","country":"SWEDEN","lat":62.217,"lon":17.75,"elev":18},"23760":{"name":"SODERHAMN (SWE-AFB)","country":"SWEDEN","lat":61.267,"lon":17.1,"elev":36},"23780":{"name":"SODERHAMN FLYGPLATS","country":"SWEDEN","lat":61.45,"lon":17.167,"elev":27},"23820":{"name":"LUNGO","country":"SWEDEN","lat":62.65,"lon":18.1,"elev":18},"24000":{"name":"OSTMARK","country":"SWEDEN","lat":60.35,"lon":12.65,"elev":310},"24030":{"name":"NAVEN","country":"SWEDEN","lat":58.7,"lon":13.117,"elev":53},"24040":{"name":"ARVIKA","country":"SWEDEN","lat":59.667,"lon":12.583,"elev":75},"24060":{"name":"BLOMSKOG","country":"SWEDEN","lat":59.283,"lon":12.05,"elev":110},"24080":{"name":"BLOMSKOG","country":"SWEDEN","lat":59.217,"lon":12.083,"elev":171},"24090":{"name":"AMAL","country":"SWEDEN","lat":59.05,"lon":12.7,"elev":60},"24100":{"name":"MALUNG","country":"SWEDEN","lat":60.683,"lon":13.717,"elev":308},"24110":{"name":"ARVIKA","country":"SWEDEN","lat":59.667,"lon":12.633,"elev":67},"24150":{"name":"KARLSTAD SOL","country":"SWEDEN","lat":59.367,"lon":13.467,"elev":46},"24180":{"name":"KARLSTAD FLYGPLATS","country":"SWEDEN","lat":59.45,"lon":13.467,"elev":100},"24230":{"name":"SUNNE","country":"SWEDEN","lat":59.867,"lon":13.117,"elev":109},"24240":{"name":"STALLDALEN","country":"SWEDEN","lat":59.95,"lon":14.95,"elev":210},"24260":{"name":"GUSTAVSFORS","country":"SWEDEN","lat":60.15,"lon":13.8,"elev":188},"24283":{"name":"OREBRO","country":"SWEDEN","lat":59.217,"lon":15.033,"elev":59},"24290":{"name":"DAGLOSEN","country":"SWEDEN","lat":59.667,"lon":14.183,"elev":133},"24320":{"name":"OREBRO","country":"SWEDEN","lat":59.233,"lon":15.05,"elev":55},"24350":{"name":"BORLANGE","country":"SWEDEN","lat":60.433,"lon":15.517,"elev":150},"24360":{"name":"OREBRO/EKEBY (DEAD)","country":"SWEDEN","lat":59.267,"lon":15.333,"elev":33},"24400":{"name":"AMOT","country":"SWEDEN","lat":60.967,"lon":16.433,"elev":162},"24410":{"name":"MORA","country":"SWEDEN","lat":60.967,"lon":14.5,"elev":197},"24440":{"name":"FOLKARNA","country":"SWEDEN","lat":60.167,"lon":16.317,"elev":80},"24460":{"name":"VASTERAS/HASSLO AFB","country":"SWEDEN","lat":59.583,"lon":16.633,"elev":31},"24500":{"name":"EGGEGRUND","country":"SWEDEN","lat":60.733,"lon":17.567,"elev":4},"24520":{"name":"KILSBERGEN-SUTTARBOD","country":"SWEDEN","lat":59.3,"lon":14.9,"elev":219},"24530":{"name":"GAVLE","country":"SWEDEN","lat":60.717,"lon":17.167,"elev":16},"24560":{"name":"FILM","country":"SWEDEN","lat":60.233,"lon":17.9,"elev":35},"24580":{"name":"UPPSALA","country":"SWEDEN","lat":59.9,"lon":17.6,"elev":21},"24600":{"name":"STOCKHOLM/ARLANDA","country":"SWEDEN","lat":59.65,"lon":17.95,"elev":61},"24640":{"name":"STOCKHOLM/BROMMA","country":"SWEDEN","lat":59.367,"lon":17.9,"elev":14},"24680":{"name":"STORA SPANSBERGET","country":"SWEDEN","lat":60.383,"lon":15.133,"elev":493},"24690":{"name":"TULLINGE","country":"SWEDEN","lat":59.183,"lon":17.917,"elev":45},"24740":{"name":"SINGO ISLAND","country":"SWEDEN","lat":60.167,"lon":18.75,"elev":14},"24760":{"name":"FLODA","country":"SWEDEN","lat":59.05,"lon":16.4,"elev":33},"24810":{"name":"SALA","country":"SWEDEN","lat":59.917,"lon":16.683,"elev":58},"24820":{"name":"KERSTINBO","country":"SWEDEN","lat":60.267,"lon":16.983,"elev":57},"24853":{"name":"SKAVSTA","country":"SWEDEN","lat":58.783,"lon":16.9,"elev":44},"24860":{"name":"ADELSO","country":"SWEDEN","lat":59.367,"lon":17.517,"elev":6},"24880":{"name":"ORSKAR","country":"SWEDEN","lat":60.533,"lon":18.383,"elev":9},"24900":{"name":"SVANBERGA","country":"SWEDEN","lat":59.833,"lon":18.633,"elev":16},"24960":{"name":"SVENSKA HOGARNA","country":"SWEDEN","lat":59.45,"lon":19.5,"elev":12},"25000":{"name":"NORDKOSTER","country":"SWEDEN","lat":58.9,"lon":11,"elev":35},"25050":{"name":"MASESKAR","country":"SWEDEN","lat":58.1,"lon":11.333,"elev":16},"25080":{"name":"MASESKAR (LGT-H)","country":"SWEDEN","lat":58.1,"lon":11.35,"elev":14},"25103":{"name":"TROLLHATTAN VANERSB","country":"SWEDEN","lat":58.317,"lon":12.333,"elev":43},"25105":{"name":"DATSAV3 VIRT STATION (SINGAPORE)","country":"SINGAPORE","lat":1.383,"lon":103.717,"elev":0},"25120":{"name":"GOTEBORG/SAVE","country":"SWEDEN","lat":57.783,"lon":11.883,"elev":16},"25130":{"name":"GOTEBORG","country":"SWEDEN","lat":57.717,"lon":12,"elev":2},"25160":{"name":"VINGA","country":"SWEDEN","lat":57.633,"lon":11.617,"elev":19},"25180":{"name":"NIDINGEN","country":"SWEDEN","lat":57.3,"lon":11.9,"elev":2},"25200":{"name":"SATENAS","country":"SWEDEN","lat":58.433,"lon":12.717,"elev":54},"25230":{"name":"TROLLHATTAN/VANERS","country":"SWEDEN","lat":58.317,"lon":12.333,"elev":43},"25240":{"name":"MOLLA","country":"SWEDEN","lat":57.933,"lon":13.067,"elev":190},"25260":{"name":"GOTEBORG/LANDVETTER","country":"SWEDEN","lat":57.667,"lon":12.3,"elev":169},"25300":{"name":"NASHUVUD","country":"SWEDEN","lat":58.9,"lon":13.25,"elev":50},"25350":{"name":"SKOVDE AIRPORT","country":"SWEDEN","lat":58.45,"lon":13.967,"elev":105},"25360":{"name":"RANGEDALA","country":"SWEDEN","lat":57.783,"lon":13.167,"elev":299},"25410":{"name":"SNAVLUNDA","country":"SWEDEN","lat":58.967,"lon":14.9,"elev":144},"25420":{"name":"HALLUM","country":"SWEDEN","lat":58.317,"lon":13.033,"elev":71},"25440":{"name":"KARLSBORG(SAFB)","country":"SWEDEN","lat":58.517,"lon":14.533,"elev":102},"25480":{"name":"VISINGSO","country":"SWEDEN","lat":58.1,"lon":14.417,"elev":95},"25490":{"name":"TOMTABACKEN","country":"SWEDEN","lat":57.5,"lon":14.467,"elev":356},"25500":{"name":"JONKOPING/AXAMO","country":"SWEDEN","lat":57.75,"lon":14.083,"elev":224},"25520":{"name":"MALEXANDER","country":"SWEDEN","lat":58.067,"lon":15.233,"elev":197},"25540":{"name":"KETTSTAKA","country":"SWEDEN","lat":58.717,"lon":15.033,"elev":225},"25550":{"name":"NASSJO","country":"SWEDEN","lat":57.65,"lon":14.7,"elev":305},"25560":{"name":"HAGSHULT","country":"SWEDEN","lat":57.3,"lon":14.133,"elev":169},"25580":{"name":"KOLMARDEN-STROMSFOR","country":"SWEDEN","lat":58.683,"lon":16.317,"elev":155},"25590":{"name":"GLADHAMMAR","country":"SWEDEN","lat":57.7,"lon":16.467,"elev":31},"25620":{"name":"LINKOPING/MALMSLATT","country":"SWEDEN","lat":58.4,"lon":15.533,"elev":93},"25625":{"name":"SAAB","country":"SWEDEN","lat":58.4,"lon":15.667,"elev":54},"25630":{"name":"HARSTENA","country":"SWEDEN","lat":58.25,"lon":17.017,"elev":18},"25635":{"name":"ANGELHOLM","country":"SWEDEN","lat":56.3,"lon":12.85,"elev":20},"25640":{"name":"MALEXANDER","country":"SWEDEN","lat":58.067,"lon":15.233,"elev":200},"25660":{"name":"MALILLA","country":"SWEDEN","lat":57.4,"lon":15.817,"elev":98},"25670":{"name":"LANDSORT","country":"SWEDEN","lat":58.75,"lon":17.867,"elev":20},"25700":{"name":"NORRKOPING/BRAVALLA","country":"SWEDEN","lat":58.617,"lon":16.117,"elev":33},"25710":{"name":"NORRKOPING/KUNGSANG","country":"SWEDEN","lat":58.583,"lon":16.149,"elev":8},"25720":{"name":"NYKOPING/SKAVST AFB","country":"SWEDEN","lat":58.783,"lon":16.917,"elev":42},"25740":{"name":"NORRKOPING","country":"SWEDEN","lat":58.583,"lon":16.149,"elev":35},"25750":{"name":"OLANDS NORRA UDDE","country":"SWEDEN","lat":57.367,"lon":17.1,"elev":4},"25760":{"name":"GLADHAMMAR","country":"SWEDEN","lat":57.783,"lon":16.6,"elev":9},"25820":{"name":"LANDSORT","country":"SWEDEN","lat":58.75,"lon":17.867,"elev":32},"25840":{"name":"GOTSKA SANDON","country":"SWEDEN","lat":58.4,"lon":19.2,"elev":12},"25860":{"name":"HARSTENA","country":"SWEDEN","lat":58.25,"lon":17.017,"elev":7},"25880":{"name":"FARO ISLAND","country":"SWEDEN","lat":57.9,"lon":19.167,"elev":8},"25890":{"name":"GOTSKA SANDON","country":"SWEDEN","lat":58.4,"lon":19.2,"elev":17},"25900":{"name":"VISBY","country":"SWEDEN","lat":57.667,"lon":18.35,"elev":47},"25920":{"name":"OLANDS NORRA UDDE","country":"SWEDEN","lat":57.367,"lon":17.1,"elev":4},"26040":{"name":"HALMSTAD (SWE-AFB)","country":"SWEDEN","lat":56.683,"lon":12.833,"elev":30},"26050":{"name":"HALLANDS VADERO","country":"SWEDEN","lat":56.45,"lon":12.55,"elev":10},"26060":{"name":"KULLEN (LGT-H)","country":"SWEDEN","lat":56.3,"lon":12.45,"elev":72},"26070":{"name":"ANGELHOLM","country":"SWEDEN","lat":56.3,"lon":12.85,"elev":19},"26110":{"name":"HELSINGBORG","country":"SWEDEN","lat":56.033,"lon":12.767,"elev":44},"26160":{"name":"FALSTERBO","country":"SWEDEN","lat":55.383,"lon":12.817,"elev":5},"26200":{"name":"TORUP","country":"SWEDEN","lat":56.967,"lon":13.067,"elev":87},"26220":{"name":"LJUNGBY","country":"SWEDEN","lat":56.85,"lon":13.883,"elev":148},"26230":{"name":"HORBY","country":"SWEDEN","lat":55.867,"lon":13.667,"elev":114},"26250":{"name":"SKILLINGE","country":"SWEDEN","lat":55.483,"lon":14.317,"elev":5},"26260":{"name":"OSBY","country":"SWEDEN","lat":56.367,"lon":13.95,"elev":85},"26280":{"name":"HANO","country":"SWEDEN","lat":56.017,"lon":14.85,"elev":60},"26300":{"name":"LJUNGBYHED(SWE-AFB)","country":"SWEDEN","lat":56.083,"lon":13.233,"elev":52},"26350":{"name":"MALMO","country":"SWEDEN","lat":55.567,"lon":13.067,"elev":21},"26360":{"name":"MALMO/STURUP","country":"SWEDEN","lat":55.55,"lon":13.367,"elev":106},"26380":{"name":"SMYGEHUK (LGT-H)","country":"SWEDEN","lat":55.333,"lon":13.35,"elev":5},"26390":{"name":"YSTAD","country":"SWEDEN","lat":55.433,"lon":13.833,"elev":34},"26400":{"name":"VAXJO/URASA(SAFB)","country":"SWEDEN","lat":56.867,"lon":14.8,"elev":166},"26410":{"name":"VAXJO/KRONOBERG","country":"SWEDEN","lat":56.933,"lon":14.733,"elev":186},"26440":{"name":"OLANDS SODRA UDDE","country":"SWEDEN","lat":56.2,"lon":16.4,"elev":3},"26480":{"name":"VAXJO","country":"SWEDEN","lat":56.85,"lon":14.833,"elev":200},"26500":{"name":"HANO ISLAND (LGT-H)","country":"SWEDEN","lat":56.017,"lon":14.85,"elev":55},"26510":{"name":"KRISTIANSTAD/EVEROD","country":"SWEDEN","lat":55.917,"lon":14.083,"elev":23},"26610":{"name":"KOSTA","country":"SWEDEN","lat":56.85,"lon":15.45,"elev":230},"26640":{"name":"RONNEBY/KALLINGE","country":"SWEDEN","lat":56.267,"lon":15.267,"elev":58},"26660":{"name":"UNGSKAR","country":"SWEDEN","lat":56.033,"lon":15.8,"elev":3},"26700":{"name":"KALMAR","country":"SWEDEN","lat":56.683,"lon":16.3,"elev":4},"26720":{"name":"KALMAR","country":"SWEDEN","lat":56.733,"lon":16.3,"elev":16},"26800":{"name":"HOBURG","country":"SWEDEN","lat":56.917,"lon":18.15,"elev":39},"27550":{"name":"YLIVIESKA AIRPORT","country":"FINLAND","lat":64.033,"lon":24.717,"elev":76},"27900":{"name":"KUMLINGE KK","country":"FINLAND","lat":60.25,"lon":20.75,"elev":23},"28010":{"name":"KILPISJARVI","country":"FINLAND","lat":69.05,"lon":20.783,"elev":476},"28050":{"name":"KEVO","country":"FINLAND","lat":69.75,"lon":27.033,"elev":101},"28070":{"name":"IVALO","country":"FINLAND","lat":68.617,"lon":27.417,"elev":148},"28075":{"name":"ENONTEKIO","country":"FINLAND","lat":68.35,"lon":23.417,"elev":314},"28230":{"name":"MUONIO","country":"FINLAND","lat":67.967,"lon":23.683,"elev":253},"28234":{"name":"KITTILA","country":"FINLAND","lat":67.7,"lon":24.833,"elev":201},"28360":{"name":"SODANKYLA","country":"FINLAND","lat":67.367,"lon":26.65,"elev":179},"28440":{"name":"PELLO","country":"FINLAND","lat":66.8,"lon":24,"elev":84},"28450":{"name":"ROVANIEMI","country":"FINLAND","lat":66.567,"lon":25.833,"elev":201},"28480":{"name":"SALLA","country":"FINLAND","lat":66.817,"lon":28.667,"elev":223},"28490":{"name":"SALLA KK","country":"FINLAND","lat":66.833,"lon":28.683,"elev":222},"28640":{"name":"KEMI","country":"FINLAND","lat":65.783,"lon":24.583,"elev":15},"28650":{"name":"KUIVANIEMI","country":"FINLAND","lat":65.517,"lon":25.267,"elev":5},"28660":{"name":"PUDASJARVI","country":"FINLAND","lat":65.4,"lon":26.967,"elev":123},"28670":{"name":"PUDASJARVI","country":"FINLAND","lat":65.367,"lon":27.017,"elev":117},"28690":{"name":"KUUSAMO","country":"FINLAND","lat":65.967,"lon":29.183,"elev":263},"28730":{"name":"MARJANIEM","country":"FINLAND","lat":65.033,"lon":24.567,"elev":8},"28740":{"name":"HAILUOTO","country":"FINLAND","lat":65.033,"lon":24.733,"elev":7},"28750":{"name":"OULU","country":"FINLAND","lat":64.933,"lon":25.367,"elev":15},"28790":{"name":"SUOMUSSALMI","country":"FINLAND","lat":64.9,"lon":29.017,"elev":224},"28970":{"name":"KAJAANI","country":"FINLAND","lat":64.283,"lon":27.683,"elev":136},"29010":{"name":"MASSKAR","country":"FINLAND","lat":63.733,"lon":22.583,"elev":13},"29030":{"name":"KRUUNUPYY","country":"FINLAND","lat":63.717,"lon":23.15,"elev":25},"29050":{"name":"NIVALA","country":"FINLAND","lat":63.917,"lon":24.967,"elev":81},"29100":{"name":"VALASSAARET","country":"FINLAND","lat":63.433,"lon":21.067,"elev":8},"29110":{"name":"VAASA AIRPORT","country":"FINLAND","lat":63.05,"lon":21.767,"elev":8},"29130":{"name":"KAUHAVA","country":"FINLAND","lat":63.1,"lon":23.033,"elev":44},"29135":{"name":"KRUUNUPYY","country":"FINLAND","lat":63.717,"lon":23.133,"elev":26},"29150":{"name":"VIITASAARI","country":"FINLAND","lat":63.083,"lon":25.867,"elev":132},"29170":{"name":"KUOPIO","country":"FINLAND","lat":63.017,"lon":27.8,"elev":102},"29190":{"name":"ILOMANTSI","country":"FINLAND","lat":62.683,"lon":30.95,"elev":165},"29210":{"name":"MOIKIPAA","country":"FINLAND","lat":62.883,"lon":21.1,"elev":13},"29240":{"name":"AHTARI","country":"FINLAND","lat":62.533,"lon":24.017,"elev":161},"29290":{"name":"JOENSUU","country":"FINLAND","lat":62.667,"lon":29.633,"elev":117},"29350":{"name":"JYVASKYLA","country":"FINLAND","lat":62.4,"lon":25.683,"elev":145},"29390":{"name":"ILOMANTSI MEKRIJARV","country":"FINLAND","lat":62.767,"lon":30.967,"elev":157},"29420":{"name":"NIINISALO","country":"FINLAND","lat":61.85,"lon":22.467,"elev":136},"29430":{"name":"TAMPERE/HARMALA","country":"FINLAND","lat":61.45,"lon":23.75,"elev":92},"29440":{"name":"TAMPERE/PIRKKALA","country":"FINLAND","lat":61.417,"lon":23.583,"elev":112},"29450":{"name":"HALLI","country":"FINLAND","lat":61.85,"lon":24.8,"elev":145},"29470":{"name":"MIKKELI","country":"FINLAND","lat":61.733,"lon":27.3,"elev":138},"29480":{"name":"SAVONLINNA","country":"FINLAND","lat":61.95,"lon":28.95,"elev":95},"29490":{"name":"PUNKAHARJU","country":"FINLAND","lat":61.8,"lon":29.317,"elev":88},"29520":{"name":"PORI","country":"FINLAND","lat":61.467,"lon":21.8,"elev":17},"29530":{"name":"HAMEENLINNA","country":"FINLAND","lat":60.983,"lon":24.45,"elev":92},"29580":{"name":"LAPPEENRANTA","country":"FINLAND","lat":61.05,"lon":28.2,"elev":115},"29610":{"name":"KUUSKAJASKARI","country":"FINLAND","lat":61.133,"lon":21.367,"elev":10},"29630":{"name":"JOKIOINEN","country":"FINLAND","lat":60.817,"lon":23.5,"elev":103},"29640":{"name":"KUSTAVI ISOKARI","country":"FINLAND","lat":60.717,"lon":21.017,"elev":4},"29650":{"name":"LAHTI","country":"FINLAND","lat":60.967,"lon":25.633,"elev":84},"29660":{"name":"UTTI","country":"FINLAND","lat":60.9,"lon":26.933,"elev":100},"29670":{"name":"KOTKA HAAPASAARI","country":"FINLAND","lat":60.283,"lon":27.183,"elev":6},"29700":{"name":"MARIEHAMN/ALAND ISL","country":"FINLAND","lat":60.117,"lon":19.9,"elev":6},"29710":{"name":"JOMALA","country":"FINLAND","lat":60.15,"lon":19.867,"elev":10},"29720":{"name":"TURKU","country":"FINLAND","lat":60.517,"lon":22.267,"elev":59},"29730":{"name":"SUOMUSJARVI","country":"FINLAND","lat":60.4,"lon":23.767,"elev":86},"29740":{"name":"HELSINKI-VANTAA","country":"FINLAND","lat":60.317,"lon":24.967,"elev":56},"29750":{"name":"HELSINKI-MALMI","country":"FINLAND","lat":60.25,"lon":25.05,"elev":28},"29760":{"name":"RANKKI","country":"FINLAND","lat":60.367,"lon":26.967,"elev":12},"29800":{"name":"NYHAMN","country":"FINLAND","lat":59.967,"lon":19.967,"elev":10},"29810":{"name":"UTO","country":"FINLAND","lat":59.783,"lon":21.383,"elev":7},"29820":{"name":"RUSSARO","country":"FINLAND","lat":59.767,"lon":22.95,"elev":11},"29840":{"name":"BAGASKAR","country":"FINLAND","lat":59.933,"lon":24.017,"elev":21},"29860":{"name":"KATAJALUOTO","country":"FINLAND","lat":60.1,"lon":24.917,"elev":7},"29880":{"name":"ISOSAARI","country":"FINLAND","lat":60.1,"lon":25.067,"elev":5},"29900":{"name":"KUMLINGE ISLAND","country":"FINLAND","lat":60.3,"lon":20.75,"elev":5},"30010":{"name":"MUCKLE FLUGGA","country":"UNITED KINGDOM","lat":60.85,"lon":-0.883,"elev":53},"30030":{"name":"SUMBURGH (CAPE)","country":"UNITED KINGDOM","lat":59.883,"lon":-1.3,"elev":5},"30040":{"name":"COLLAFIRTH HILL","country":"UNITED KINGDOM","lat":60.533,"lon":-1.383,"elev":57},"30050":{"name":"LERWICK","country":"UNITED KINGDOM","lat":60.133,"lon":-1.183,"elev":84},"30060":{"name":"SELLA NESS","country":"UNITED KINGDOM","lat":60.45,"lon":-1.267,"elev":7},"30080":{"name":"FAIR ISLE","country":"UNITED KINGDOM","lat":59.533,"lon":-1.633,"elev":57},"30100":{"name":"SULE SKERRY","country":"UNITED KINGDOM","lat":59.083,"lon":-4.4,"elev":12},"30130":{"name":"FOULA","country":"UNITED KINGDOM","lat":60.15,"lon":-2.067,"elev":22},"30170":{"name":"KIRKWALL AIRPORT","country":"UNITED KINGDOM","lat":58.95,"lon":-2.9,"elev":26},"30220":{"name":"BENBECULA ISLAND","country":"UNITED KINGDOM","lat":57.467,"lon":-7.367,"elev":6},"30230":{"name":"SOUTH UIST RANGE","country":"UNITED KINGDOM","lat":57.333,"lon":-7.367,"elev":4},"30240":{"name":"HYSKEIR (LGT-H)","country":"UNITED KINGDOM","lat":56.967,"lon":-6.683,"elev":10},"30250":{"name":"BUTT OF LEWIS (LH)","country":"UNITED KINGDOM","lat":58.517,"lon":-6.267,"elev":23},"30260":{"name":"STORNOWAY","country":"UNITED KINGDOM","lat":58.217,"lon":-6.317,"elev":15},"30280":{"name":"NEIST POINT (LGT-H)","country":"UNITED KINGDOM","lat":57.417,"lon":-6.783,"elev":21},"30320":{"name":"RUBH RE","country":"UNITED KINGDOM","lat":57.867,"lon":-5.817,"elev":16},"30370":{"name":"SKYE/LUSA","country":"UNITED KINGDOM","lat":57.25,"lon":-5.8,"elev":18},"30490":{"name":"CAPE WRATH (LGT-H)","country":"UNITED KINGDOM","lat":58.633,"lon":-5,"elev":112},"30570":{"name":"FOYERS","country":"UNITED KINGDOM","lat":57.267,"lon":-4.483,"elev":21},"30580":{"name":"INVERGORDON HARBOUR","country":"UNITED KINGDOM","lat":57.683,"lon":-4.167,"elev":3},"30590":{"name":"INVERNESS/DALCROSS","country":"UNITED KINGDOM","lat":57.533,"lon":-4.05,"elev":9},"30610":{"name":"TARBAT NESS (CAPE)","country":"UNITED KINGDOM","lat":57.867,"lon":-3.767,"elev":19},"30620":{"name":"TAIN RANGE","country":"UNITED KINGDOM","lat":57.817,"lon":-3.967,"elev":4},"30630":{"name":"AVIEMORE","country":"UNITED KINGDOM","lat":57.2,"lon":-3.833,"elev":228},"30660":{"name":"KINLOSS","country":"UNITED KINGDOM","lat":57.65,"lon":-3.567,"elev":5},"30680":{"name":"LOSSIEMOUTH","country":"UNITED KINGDOM","lat":57.717,"lon":-3.317,"elev":6},"30700":{"name":"GLENLIVET","country":"UNITED KINGDOM","lat":57.35,"lon":-3.35,"elev":213},"30750":{"name":"WICK","country":"UNITED KINGDOM","lat":58.45,"lon":-3.083,"elev":36},"30890":{"name":"USAN","country":"UNITED KINGDOM","lat":56.683,"lon":-2.45,"elev":30},"30910":{"name":"ABERDEEN/DYCE AIRPO","country":"UNITED KINGDOM","lat":57.2,"lon":-2.217,"elev":69},"30920":{"name":"PETERHEAD HARBOUR","country":"UNITED KINGDOM","lat":57.5,"lon":-1.767,"elev":15},"30930":{"name":"FRASERBURGH (LGT-H)","country":"UNITED KINGDOM","lat":57.683,"lon":-2,"elev":19},"30940":{"name":"ROSEHEARTY","country":"UNITED KINGDOM","lat":57.7,"lon":-2.117,"elev":7},"31000":{"name":"TIREE","country":"UNITED KINGDOM","lat":56.5,"lon":-6.883,"elev":12},"31020":{"name":"ORSAY (LGT-H)","country":"UNITED KINGDOM","lat":55.667,"lon":-6.5,"elev":23},"31050":{"name":"ISLAY/PORT ELLEN","country":"UNITED KINGDOM","lat":55.683,"lon":-6.25,"elev":17},"31060":{"name":"RHUVAAL","country":"UNITED KINGDOM","lat":55.917,"lon":-6.133,"elev":20},"31110":{"name":"MACHRIHANISH","country":"UNITED KINGDOM","lat":55.433,"lon":-5.7,"elev":10},"31140":{"name":"OBAN","country":"UNITED KINGDOM","lat":56.417,"lon":-5.467,"elev":4},"31180":{"name":"CORSEWALL PT. (LH)","country":"UNITED KINGDOM","lat":55,"lon":-5.15,"elev":15},"31310":{"name":"MULL OF GALLOWAY LH","country":"UNITED KINGDOM","lat":54.633,"lon":-4.85,"elev":78},"31320":{"name":"WEST FREUGH","country":"UNITED KINGDOM","lat":54.85,"lon":-4.95,"elev":10},"31330":{"name":"SLOY","country":"UNITED KINGDOM","lat":56.25,"lon":-4.717,"elev":6},"31340":{"name":"GLASGOW BISHOPTON","country":"UNITED KINGDOM","lat":55.9,"lon":-4.533,"elev":59},"31350":{"name":"PRESTWICK(CIV/NAVY)","country":"UNITED KINGDOM","lat":55.5,"lon":-4.583,"elev":20},"31360":{"name":"PRESTWICK RNAS","country":"UNITED KINGDOM","lat":55.517,"lon":-4.583,"elev":27},"31370":{"name":"WHITHORN","country":"UNITED KINGDOM","lat":54.7,"lon":-4.417,"elev":40},"31380":{"name":"GREENOCK MRCC","country":"UNITED KINGDOM","lat":55.967,"lon":-4.8,"elev":5},"31390":{"name":"SAUGHALL","country":"UNITED KINGDOM","lat":55.6,"lon":-4.217,"elev":223},"31394":{"name":"CAMPBELTOWN","country":"UNITED KINGDOM","lat":55.433,"lon":-5.683,"elev":14},"31400":{"name":"GLASGOW AIRPORT","country":"UNITED KINGDOM","lat":55.867,"lon":-4.433,"elev":8},"31450":{"name":"GLASGOW WEA. CEN.","country":"UNITED KINGDOM","lat":55.867,"lon":-4.267,"elev":17},"31540":{"name":"DUMFRIES/DRUNGANS","country":"UNITED KINGDOM","lat":55.05,"lon":-3.65,"elev":16},"31590":{"name":"DATSAV3 VIRT STATION (UNITED KINGDOM)","country":"UNITED KINGDOM","lat":-67.767,"lon":-68.917,"elev":0},"31600":{"name":"EDINBURGH AIRPORT","country":"UNITED KINGDOM","lat":55.95,"lon":-3.35,"elev":41},"31620":{"name":"ESKDALEMUIR","country":"UNITED KINGDOM","lat":55.317,"lon":-3.2,"elev":242},"31634":{"name":"DUNDEE","country":"UNITED KINGDOM","lat":56.45,"lon":-3.017,"elev":5},"31650":{"name":"SPADEADAM","country":"UNITED KINGDOM","lat":55.05,"lon":-2.55,"elev":325},"31660":{"name":"EDINBURGH GOGARBANK","country":"UNITED KINGDOM","lat":55.933,"lon":-3.35,"elev":57},"31670":{"name":"BASS ROCK (LGT-H)","country":"UNITED KINGDOM","lat":56.083,"lon":-2.633,"elev":38},"31710":{"name":"LEUCHARS","country":"UNITED KINGDOM","lat":56.4,"lon":-2.867,"elev":10},"31740":{"name":"FIFE NESS","country":"UNITED KINGDOM","lat":56.3,"lon":-2.583,"elev":12},"31760":{"name":"CARTERHOUSE","country":"UNITED KINGDOM","lat":55.367,"lon":-2.517,"elev":308},"31770":{"name":"BELL ROCK (LGT-H)","country":"UNITED KINGDOM","lat":56.433,"lon":-2.4,"elev":21},"31850":{"name":"ST. ABBS HEAD (LH)","country":"UNITED KINGDOM","lat":55.917,"lon":-2.133,"elev":75},"31900":{"name":"SEAHOUSES","country":"UNITED KINGDOM","lat":55.583,"lon":-1.65,"elev":11},"32040":{"name":"ISLE OF MAN/RONALDS","country":"MAN  ISLE OF","lat":54.083,"lon":-4.633,"elev":16},"32080":{"name":"POINT OF AYRE (LH)","country":"MAN  ISLE OF","lat":54.417,"lon":-4.367,"elev":9},"32090":{"name":"DRUMBURGH","country":"UNITED KINGDOM","lat":54.933,"lon":-3.15,"elev":7},"32110":{"name":"ST. BEES HEAD (LH)","country":"UNITED KINGDOM","lat":54.517,"lon":-3.633,"elev":94},"32150":{"name":"ASPATRIA","country":"UNITED KINGDOM","lat":54.767,"lon":-3.317,"elev":62},"32220":{"name":"CARLISLE","country":"UNITED KINGDOM","lat":54.933,"lon":-2.95,"elev":26},"32240":{"name":"SPADEADAM","country":"UNITED KINGDOM","lat":55.05,"lon":-2.55,"elev":286},"32380":{"name":"ALBEMARLE","country":"UNITED KINGDOM","lat":55.017,"lon":-1.867,"elev":146},"32400":{"name":"BOULMER","country":"UNITED KINGDOM","lat":55.417,"lon":-1.6,"elev":27},"32431":{"name":"NEWCASTLE/WOOLSING.","country":"UNITED KINGDOM","lat":55.033,"lon":-1.683,"elev":81},"32433":{"name":"NEWCASTLE","country":"UNITED KINGDOM","lat":55.033,"lon":-1.683,"elev":83},"32440":{"name":"DATSAV3 VIRT STATION (UNITED KINGDOM)","country":"UNITED KINGDOM","lat":-67.767,"lon":-68.917,"elev":0},"32450":{"name":"NEWCASTLE WX CENTRE","country":"UNITED KINGDOM","lat":54.967,"lon":-1.617,"elev":47},"32460":{"name":"NEWCASTLE WEATHER C","country":"UNITED KINGDOM","lat":54.983,"lon":-1.6,"elev":52},"32570":{"name":"LEEMING","country":"UNITED KINGDOM","lat":54.3,"lon":-1.533,"elev":32},"32610":{"name":"DISFORTH AIRFIELD","country":"UNITED KINGDOM","lat":54.133,"lon":-1.417,"elev":33},"32620":{"name":"TYNEMOUTH","country":"UNITED KINGDOM","lat":55.017,"lon":-1.417,"elev":30},"32635":{"name":"TEESSIDE","country":"UNITED KINGDOM","lat":54.5,"lon":-1.417,"elev":38},"32643":{"name":"TOPCLIFFE","country":"UNITED KINGDOM","lat":54.2,"lon":-1.383,"elev":29},"32660":{"name":"LINTON-ON-OUSE","country":"UNITED KINGDOM","lat":54.05,"lon":-1.25,"elev":14},"32750":{"name":"LOFTUS SAMOS","country":"UNITED KINGDOM","lat":54.567,"lon":-0.867,"elev":159},"32810":{"name":"FYLINGDALES","country":"UNITED KINGDOM","lat":54.367,"lon":-0.667,"elev":262},"32820":{"name":"WHITBY","country":"UNITED KINGDOM","lat":54.483,"lon":-0.6,"elev":60},"32920":{"name":"BRIDLINGTON MRSC","country":"UNITED KINGDOM","lat":54.1,"lon":-0.167,"elev":19},"33020":{"name":"VALLEY","country":"UNITED KINGDOM","lat":53.25,"lon":-4.533,"elev":10},"33110":{"name":"DATSAV3 VIRT STATION (UNITED KINGDOM)","country":"UNITED KINGDOM","lat":-67.767,"lon":-68.917,"elev":0},"33160":{"name":"CROSBY","country":"UNITED KINGDOM","lat":53.5,"lon":-3.067,"elev":9},"33180":{"name":"BLACKPOOL AIRPORT","country":"UNITED KINGDOM","lat":53.767,"lon":-3.033,"elev":10},"33210":{"name":"HAWARDEN","country":"UNITED KINGDOM","lat":53.167,"lon":-2.983,"elev":9},"33220":{"name":"AUGHTON","country":"UNITED KINGDOM","lat":53.55,"lon":-2.917,"elev":56},"33230":{"name":"LIVERPOOL AIRPORT","country":"UNITED KINGDOM","lat":53.333,"lon":-2.85,"elev":26},"33233":{"name":"LIVERPOOL","country":"UNITED KINGDOM","lat":53.333,"lon":-2.85,"elev":25},"33300":{"name":"LEEK THORNCLIFFE","country":"UNITED KINGDOM","lat":53.133,"lon":-1.983,"elev":299},"33340":{"name":"MANCHESTER AIRPORT","country":"UNITED KINGDOM","lat":53.35,"lon":-2.283,"elev":69},"33350":{"name":"MANCHESTER/BARTON","country":"UNITED KINGDOM","lat":53.483,"lon":-2.25,"elev":37},"33380":{"name":"CELLARHEAD","country":"UNITED KINGDOM","lat":53.033,"lon":-2.083,"elev":228},"33430":{"name":"HUDDERSFIELD/OAKES","country":"UNITED KINGDOM","lat":53.65,"lon":-1.833,"elev":232},"33440":{"name":"BINGLEY NO.2","country":"UNITED KINGDOM","lat":53.817,"lon":-1.867,"elev":267},"33450":{"name":"EMLEY MOOR","country":"UNITED KINGDOM","lat":53.617,"lon":-1.667,"elev":259},"33463":{"name":"LEEDS BRADFORD","country":"UNITED KINGDOM","lat":53.867,"lon":-1.65,"elev":213},"33470":{"name":"LEEDS WEATHER CTR","country":"UNITED KINGDOM","lat":53.8,"lon":-1.55,"elev":47},"33480":{"name":"WOODFORD","country":"UNITED KINGDOM","lat":53.333,"lon":-2.15,"elev":88},"33540":{"name":"NOTTINGHAM/WATNALL","country":"UNITED KINGDOM","lat":53,"lon":-1.25,"elev":117},"33550":{"name":"CHURCH FENTON","country":"UNITED KINGDOM","lat":53.833,"lon":-1.2,"elev":8},"33600":{"name":"FINNINGLEY(RAF)","country":"UNITED KINGDOM","lat":53.483,"lon":-1,"elev":17},"33730":{"name":"SCAMPTON","country":"UNITED KINGDOM","lat":53.3,"lon":-0.55,"elev":57},"33735":{"name":"HUMBERSIDE","country":"UNITED KINGDOM","lat":53.567,"lon":-0.35,"elev":38},"33770":{"name":"WADDINGTON","country":"UNITED KINGDOM","lat":53.167,"lon":-0.517,"elev":68},"33790":{"name":"CRANWELL","country":"UNITED KINGDOM","lat":53.033,"lon":-0.5,"elev":62},"33820":{"name":"LECONFIELD","country":"UNITED KINGDOM","lat":53.867,"lon":-0.433,"elev":7},"33850":{"name":"DONNA NOOK NO.2","country":"UNITED KINGDOM","lat":53.483,"lon":0.083,"elev":11},"33870":{"name":"EASINGTON","country":"UNITED KINGDOM","lat":53.667,"lon":0.117,"elev":10},"33880":{"name":"BINBROOK(RAF)","country":"UNITED KINGDOM","lat":53.45,"lon":-0.2,"elev":108},"33910":{"name":"CONINGSBY","country":"UNITED KINGDOM","lat":53.083,"lon":-0.167,"elev":6},"33920":{"name":"WAINFLEET","country":"UNITED KINGDOM","lat":53.083,"lon":0.267,"elev":5},"33950":{"name":"DATSAV3 VIRT STATION (UNITED KINGDOM)","country":"UNITED KINGDOM","lat":-67.767,"lon":-68.917,"elev":0},"33960":{"name":"SPURN HEAD (POINT)","country":"UNITED KINGDOM","lat":53.617,"lon":0.15,"elev":12},"34000":{"name":"BARDSEY ISL (LGT-H)","country":"UNITED KINGDOM","lat":52.75,"lon":-4.8,"elev":16},"34054":{"name":"DONCASTER SHEFFIELD","country":"UNITED KINGDOM","lat":53.483,"lon":1,"elev":17},"34140":{"name":"SHAWBURY","country":"UNITED KINGDOM","lat":52.8,"lon":-2.667,"elev":72},"34185":{"name":"EAST MIDLANDS","country":"UNITED KINGDOM","lat":52.833,"lon":-1.317,"elev":96},"34530":{"name":"COTTESMORE","country":"UNITED KINGDOM","lat":52.733,"lon":-0.65,"elev":142},"34620":{"name":"WITTERING","country":"UNITED KINGDOM","lat":52.617,"lon":-0.467,"elev":73},"34690":{"name":"HOLBEACH","country":"UNITED KINGDOM","lat":52.867,"lon":0.15,"elev":2},"34820":{"name":"MARHAM","country":"UNITED KINGDOM","lat":52.65,"lon":0.567,"elev":21},"34873":{"name":"SCULTHORPE (AF MET)","country":"UNITED KINGDOM","lat":52.85,"lon":0.767,"elev":65},"34920":{"name":"NORWICH WEA CNTRE","country":"UNITED KINGDOM","lat":52.633,"lon":1.317,"elev":18},"34940":{"name":"CROMER","country":"UNITED KINGDOM","lat":52.833,"lon":1.333,"elev":17},"34950":{"name":"COLTISHALL","country":"UNITED KINGDOM","lat":52.767,"lon":1.35,"elev":17},"34960":{"name":"HEMSBY","country":"UNITED KINGDOM","lat":52.683,"lon":1.683,"elev":14},"34970":{"name":"GORLESTON","country":"UNITED KINGDOM","lat":52.583,"lon":1.717,"elev":3},"35020":{"name":"ABERPORTH","country":"UNITED KINGDOM","lat":52.133,"lon":-4.567,"elev":134},"35110":{"name":"NEWCASTLE ON CLUN","country":"UNITED KINGDOM","lat":52.433,"lon":-3.117,"elev":215},"35220":{"name":"HEREFORD/CREDENHILL","country":"UNITED KINGDOM","lat":52.083,"lon":-2.8,"elev":76},"35270":{"name":"GREAT MALVERN","country":"UNITED KINGDOM","lat":52.117,"lon":-2.3,"elev":44},"35280":{"name":"PERSHORE","country":"UNITED KINGDOM","lat":52.133,"lon":-2.033,"elev":40},"35310":{"name":"BIRMINGHAM/EDBASTON","country":"UNITED KINGDOM","lat":52.483,"lon":-1.933,"elev":163},"35340":{"name":"BIRMINGHAM AIRPORT","country":"UNITED KINGDOM","lat":52.45,"lon":-1.733,"elev":99},"35350":{"name":"COLESHILL","country":"UNITED KINGDOM","lat":52.483,"lon":-1.683,"elev":96},"35413":{"name":"COVENTRY","country":"UNITED KINGDOM","lat":52.367,"lon":-1.467,"elev":83},"35580":{"name":"BEDFORD AIRPORT","country":"UNITED KINGDOM","lat":52.217,"lon":-0.483,"elev":89},"35590":{"name":"CARDINGTON","country":"UNITED KINGDOM","lat":52.1,"lon":-0.417,"elev":30},"35621":{"name":"ALCONBURY RAF","country":"UNITED KINGDOM","lat":52.367,"lon":-0.217,"elev":49},"35623":{"name":"ALCONBURY RAF","country":"UNITED KINGDOM","lat":52.367,"lon":-0.217,"elev":49},"35660":{"name":"WYTON(RAF)","country":"UNITED KINGDOM","lat":52.35,"lon":-0.117,"elev":41},"35661":{"name":"ISLAY","country":"UNITED KINGDOM","lat":55.683,"lon":-6.25,"elev":17},"35715":{"name":"CAMBRIDGE","country":"UNITED KINGDOM","lat":52.2,"lon":0.167,"elev":16},"35770":{"name":"MILDENHALL RAF","country":"UNITED KINGDOM","lat":52.367,"lon":0.483,"elev":10},"35771":{"name":"MILDENHALL RAF","country":"UNITED KINGDOM","lat":52.367,"lon":0.483,"elev":10},"35773":{"name":"MILDENHALL RAF","country":"UNITED KINGDOM","lat":52.367,"lon":0.483,"elev":10},"35830":{"name":"LAKENHEATH RAF","country":"UNITED KINGDOM","lat":52.417,"lon":0.567,"elev":10},"35831":{"name":"LAKENHEATH RAF","country":"UNITED KINGDOM","lat":52.4,"lon":0.567,"elev":10},"35833":{"name":"LAKENHEATH RAF","country":"UNITED KINGDOM","lat":52.4,"lon":0.567,"elev":10},"35860":{"name":"HONINGTON","country":"UNITED KINGDOM","lat":52.333,"lon":0.767,"elev":53},"35881":{"name":"SHEPHERDS GROVE","country":"UNITED KINGDOM","lat":52.317,"lon":0.917,"elev":60},"35900":{"name":"WATTISHAM","country":"UNITED KINGDOM","lat":52.117,"lon":0.967,"elev":89},"35951":{"name":"WOODBRIDGE RAF","country":"UNITED KINGDOM","lat":52.083,"lon":1.4,"elev":29},"35953":{"name":"WOODBRIDGE RAF","country":"UNITED KINGDOM","lat":52.083,"lon":1.4,"elev":29},"35961":{"name":"BENTWATERS RAF","country":"UNITED KINGDOM","lat":52.133,"lon":1.433,"elev":26},"35963":{"name":"BENTWATERS RAF","country":"UNITED KINGDOM","lat":52.133,"lon":1.433,"elev":26},"36030":{"name":"BRAWDY(RAF)","country":"UNITED KINGDOM","lat":51.883,"lon":-5.117,"elev":111},"36040":{"name":"MILFORD HAVEN","country":"UNITED KINGDOM","lat":51.7,"lon":-5.05,"elev":32},"36050":{"name":"PEMBREY SANDS","country":"UNITED KINGDOM","lat":51.717,"lon":-4.367,"elev":6},"36090":{"name":"MUMBLES","country":"UNITED KINGDOM","lat":51.567,"lon":-3.983,"elev":32},"36110":{"name":"BRYNAMMAN","country":"UNITED KINGDOM","lat":51.817,"lon":-3.867,"elev":182},"36140":{"name":"CILFYNYDD","country":"UNITED KINGDOM","lat":51.633,"lon":-3.3,"elev":194},"36280":{"name":"FILTON","country":"UNITED KINGDOM","lat":51.517,"lon":-2.583,"elev":59},"36330":{"name":"GLOUCESTER","country":"UNITED KINGDOM","lat":51.867,"lon":-2.217,"elev":24},"36333":{"name":"GLOUCESTERSHIRE","country":"UNITED KINGDOM","lat":51.883,"lon":-2.167,"elev":30},"36440":{"name":"FAIRFORD RAF","country":"UNITED KINGDOM","lat":51.683,"lon":-1.783,"elev":87},"36490":{"name":"BRIZE NORTON","country":"UNITED KINGDOM","lat":51.75,"lon":-1.583,"elev":81},"36530":{"name":"ABINGDON(RAF)","country":"UNITED KINGDOM","lat":51.683,"lon":-1.317,"elev":80},"36551":{"name":"UPPER HEYFORD RAF","country":"UNITED KINGDOM","lat":51.933,"lon":-1.25,"elev":133},"36553":{"name":"UPPER HEYFORD RAF","country":"UNITED KINGDOM","lat":51.933,"lon":-1.25,"elev":134},"36580":{"name":"BENSON","country":"UNITED KINGDOM","lat":51.617,"lon":-1.083,"elev":57},"36600":{"name":"HIGH WYCOMBE HQSTC","country":"UNITED KINGDOM","lat":51.683,"lon":-0.8,"elev":205},"36690":{"name":"DATSAV3 VIRT STATION (UNITED KINGDOM)","country":"UNITED KINGDOM","lat":-67.767,"lon":-68.917,"elev":0},"36720":{"name":"NORTHOLT","country":"UNITED KINGDOM","lat":51.55,"lon":-0.417,"elev":39},"36731":{"name":"LUTON ARPT","country":"UNITED KINGDOM","lat":51.883,"lon":-0.367,"elev":160},"36733":{"name":"LUTON","country":"UNITED KINGDOM","lat":51.867,"lon":-0.367,"elev":164},"36830":{"name":"STANSTED AIRPORT","country":"UNITED KINGDOM","lat":51.883,"lon":0.233,"elev":106},"36840":{"name":"ANDREWSFIELD","country":"UNITED KINGDOM","lat":51.883,"lon":0.45,"elev":87},"36880":{"name":"WETHERSFIELD(RAF)","country":"UNITED KINGDOM","lat":51.967,"lon":0.5,"elev":98},"36911":{"name":"SOUTHEND AIRPORT","country":"UNITED KINGDOM","lat":51.567,"lon":0.7,"elev":15},"36913":{"name":"SOUTHEND","country":"UNITED KINGDOM","lat":51.567,"lon":0.683,"elev":15},"36930":{"name":"SHOEBURYNESS","country":"UNITED KINGDOM","lat":51.55,"lon":0.833,"elev":3},"36960":{"name":"WALTON-ON-NAZE","country":"UNITED KINGDOM","lat":51.85,"lon":1.283,"elev":5},"37020":{"name":"LUNDY ISL (LGT-H)","country":"UNITED KINGDOM","lat":51.167,"lon":-4.65,"elev":43},"37030":{"name":"HARTLAND POINT","country":"UNITED KINGDOM","lat":51.017,"lon":-4.533,"elev":91},"37040":{"name":"HARTLAND","country":"UNITED KINGDOM","lat":50.983,"lon":-4.467,"elev":142},"37070":{"name":"CHIVENOR","country":"UNITED KINGDOM","lat":51.083,"lon":-4.15,"elev":6},"37110":{"name":"EXTON","country":"UNITED KINGDOM","lat":51,"lon":-3.483,"elev":332},"37120":{"name":"TIVINGTON","country":"UNITED KINGDOM","lat":51.2,"lon":-3.533,"elev":83},"37150":{"name":"CARDIFF-WALES ARPT","country":"UNITED KINGDOM","lat":51.4,"lon":-3.35,"elev":67},"37160":{"name":"ST. ATHAN","country":"UNITED KINGDOM","lat":51.4,"lon":-3.433,"elev":49},"37170":{"name":"CARDIFF WEATHER CEN","country":"UNITED KINGDOM","lat":51.483,"lon":-3.183,"elev":52},"37243":{"name":"BRISTOL","country":"UNITED KINGDOM","lat":51.383,"lon":-2.717,"elev":194},"37260":{"name":"BRISTOL WEA CENTER","country":"UNITED KINGDOM","lat":51.467,"lon":-2.6,"elev":11},"37400":{"name":"LYNEHAM","country":"UNITED KINGDOM","lat":51.5,"lon":-1.983,"elev":147},"37430":{"name":"LARKHILL","country":"UNITED KINGDOM","lat":51.2,"lon":-1.8,"elev":133},"37460":{"name":"BOSCOMBE DOWN","country":"UNITED KINGDOM","lat":51.167,"lon":-1.75,"elev":126},"37490":{"name":"MIDDLE WALLOP","country":"UNITED KINGDOM","lat":51.15,"lon":-1.567,"elev":91},"37610":{"name":"ODIHAM","country":"UNITED KINGDOM","lat":51.233,"lon":-0.95,"elev":118},"37630":{"name":"BRACKNELL/BEAUFORT","country":"UNITED KINGDOM","lat":51.383,"lon":-0.783,"elev":74},"37663":{"name":"BIGGIN HILL","country":"UNITED KINGDOM","lat":51.333,"lon":0.033,"elev":187},"37680":{"name":"FARNBOROUGH","country":"UNITED KINGDOM","lat":51.283,"lon":-0.767,"elev":64},"37683":{"name":"LONDON/CITY","country":"UNITED KINGDOM","lat":51.5,"lon":0.05,"elev":6},"37690":{"name":"CHARLWOOD","country":"UNITED KINGDOM","lat":51.233,"lon":-0.383,"elev":68},"37720":{"name":"LONDON/HEATHROW AIR","country":"UNITED KINGDOM","lat":51.483,"lon":-0.45,"elev":25},"37750":{"name":"KEW-IN-LONDON","country":"UNITED KINGDOM","lat":51.467,"lon":-0.317,"elev":5},"37760":{"name":"LONDON/GATWICK ARPT","country":"UNITED KINGDOM","lat":51.15,"lon":-0.183,"elev":62},"37780":{"name":"LONDON WEA CENTER","country":"UNITED KINGDOM","lat":51.517,"lon":-0.117,"elev":23},"37790":{"name":"LONDON WEATHER CENT","country":"UNITED KINGDOM","lat":51.517,"lon":-0.1,"elev":43},"37860":{"name":"GRAVESEND","country":"UNITED KINGDOM","lat":51.433,"lon":0.383,"elev":13},"37871":{"name":"WEST MALLING","country":"UNITED KINGDOM","lat":51.283,"lon":0.417,"elev":104},"37910":{"name":"SHEERNESS","country":"UNITED KINGDOM","lat":51.45,"lon":0.75,"elev":25},"37940":{"name":"BECAME STN 037941","country":"UNITED KINGDOM","lat":51.15,"lon":1.383,"elev":91},"37960":{"name":"LANGDON BAY","country":"UNITED KINGDOM","lat":51.133,"lon":1.35,"elev":117},"37970":{"name":"MANSTON","country":"UNITED KINGDOM","lat":51.35,"lon":1.367,"elev":43.9},"38020":{"name":"SCILLY/ROUND ISLAND","country":"UNITED KINGDOM","lat":49.983,"lon":-6.317,"elev":38},"38030":{"name":"SCILLY: ST MARYS AI","country":"UNITED KINGDOM","lat":49.917,"lon":-6.3,"elev":30},"38040":{"name":"SCILLY/ST.MARYS","country":"UNITED KINGDOM","lat":49.933,"lon":-6.3,"elev":51},"38060":{"name":"GWENNAP HEAD","country":"UNITED KINGDOM","lat":50.033,"lon":-5.667,"elev":66},"38080":{"name":"CAMBORNE","country":"UNITED KINGDOM","lat":50.217,"lon":-5.317,"elev":88},"38090":{"name":"CULDROSE","country":"UNITED KINGDOM","lat":50.083,"lon":-5.25,"elev":84},"38100":{"name":"PENDENNIS POINT","country":"UNITED KINGDOM","lat":50.15,"lon":-5.067,"elev":42},"38140":{"name":"LIZARD","country":"UNITED KINGDOM","lat":49.95,"lon":-5.2,"elev":73},"38150":{"name":"LIZARD LIGHTHOUSE","country":"UNITED KINGDOM","lat":49.967,"lon":-5.2,"elev":60},"38170":{"name":"ST. MAWGAN","country":"UNITED KINGDOM","lat":50.433,"lon":-5,"elev":103},"38270":{"name":"PLYMOUTH MOUNT BATT","country":"UNITED KINGDOM","lat":50.35,"lon":-4.117,"elev":50},"38273":{"name":"PLYMOUTH","country":"UNITED KINGDOM","lat":50.417,"lon":-4.1,"elev":149},"38300":{"name":"BURRINGTON","country":"UNITED KINGDOM","lat":50.933,"lon":-3.983,"elev":199},"38340":{"name":"PRAWLE POINT","country":"UNITED KINGDOM","lat":50.2,"lon":-3.717,"elev":59},"38390":{"name":"EXETER AIRPORT","country":"UNITED KINGDOM","lat":50.733,"lon":-3.417,"elev":30},"38400":{"name":"DUNKESWELL AERODROM","country":"UNITED KINGDOM","lat":50.867,"lon":-3.233,"elev":253},"38530":{"name":"YEOVILTON","country":"UNITED KINGDOM","lat":51,"lon":-2.633,"elev":20},"38550":{"name":"PORTLAND BILL C.G.","country":"UNITED KINGDOM","lat":50.517,"lon":-2.45,"elev":53},"38570":{"name":"ISLE OF PORTLAND","country":"UNITED KINGDOM","lat":50.517,"lon":-2.45,"elev":52},"38580":{"name":"PORTLAND HELIPORT","country":"UNITED KINGDOM","lat":50.567,"lon":-2.45,"elev":3},"38620":{"name":"BOURNEMOUTH/HURN","country":"UNITED KINGDOM","lat":50.783,"lon":-1.833,"elev":10},"38640":{"name":"DATSAV3 VIRT STATION (UNITED KINGDOM)","country":"UNITED KINGDOM","lat":-67.767,"lon":-68.917,"elev":0},"38650":{"name":"SOUTHAMPTON WX CNTR","country":"UNITED KINGDOM","lat":50.9,"lon":-1.4,"elev":9},"38660":{"name":"ST. CATHERINES POIN","country":"UNITED KINGDOM","lat":50.583,"lon":-1.3,"elev":24},"38710":{"name":"DATSAV3 VIRT STATION (UNITED KINGDOM)","country":"UNITED KINGDOM","lat":-67.767,"lon":-68.917,"elev":0},"38740":{"name":"SOLENT M.R.S.C.","country":"UNITED KINGDOM","lat":50.8,"lon":-1.217,"elev":13},"38760":{"name":"SHOREHAM AIRPORT","country":"UNITED KINGDOM","lat":50.833,"lon":-0.283,"elev":2},"38790":{"name":"SHOREHAM-BY-SEA","country":"UNITED KINGDOM","lat":50.817,"lon":-0.25,"elev":5},"38800":{"name":"NEWHAVEN (LGT-H)","country":"UNITED KINGDOM","lat":50.783,"lon":0.05,"elev":5},"38820":{"name":"HERSTMONCEUX","country":"UNITED KINGDOM","lat":50.9,"lon":0.317,"elev":52},"38840":{"name":"HERSTMONCEUX","country":"UNITED KINGDOM","lat":50.867,"lon":0.333,"elev":18},"38860":{"name":"FAIRLIGHT","country":"UNITED KINGDOM","lat":50.867,"lon":0.633,"elev":143},"38880":{"name":"DUNGENESS","country":"UNITED KINGDOM","lat":50.917,"lon":0.967,"elev":3},"38940":{"name":"GUERNSEY AIRPORT","country":"GUERNSEY","lat":49.433,"lon":-2.6,"elev":101},"38950":{"name":"JERSEY AIRPORT","country":"JERSEY","lat":49.217,"lon":-2.2,"elev":84},"39040":{"name":"CASTLEDERG","country":"UNITED KINGDOM","lat":54.7,"lon":-7.583,"elev":50},"39050":{"name":"CARRIGANS","country":"UNITED KINGDOM","lat":54.667,"lon":-7.317,"elev":114},"39060":{"name":"CARMONEY","country":"UNITED KINGDOM","lat":55.017,"lon":-7.233,"elev":73},"39084":{"name":"LONDONDERRY EGLINTO","country":"UNITED KINGDOM","lat":55.033,"lon":-7.15,"elev":7},"39170":{"name":"BELFAST/ALDERGROVE","country":"UNITED KINGDOM","lat":54.65,"lon":-6.217,"elev":68},"39200":{"name":"HILLSBOROUGH","country":"UNITED KINGDOM","lat":54.483,"lon":-6.1,"elev":38},"39240":{"name":"BELFAST HARBOUR","country":"UNITED KINGDOM","lat":54.6,"lon":-5.883,"elev":5},"39270":{"name":"BANGOR HARBOUR","country":"UNITED KINGDOM","lat":54.667,"lon":-5.667,"elev":11},"39280":{"name":"LARNE","country":"UNITED KINGDOM","lat":54.85,"lon":-5.8,"elev":3},"39520":{"name":"ROCHES POINT","country":"IRELAND","lat":51.8,"lon":-8.25,"elev":41},"39530":{"name":"VALENTIA OBSERVATOR","country":"IRELAND","lat":51.933,"lon":-10.25,"elev":9},"39550":{"name":"CORK AIRPORT","country":"IRELAND","lat":51.85,"lon":-8.483,"elev":162},"39570":{"name":"ROSSLARE","country":"IRELAND","lat":52.25,"lon":-6.333,"elev":25},"39600":{"name":"KILKENNY","country":"IRELAND","lat":52.667,"lon":-7.267,"elev":64},"39620":{"name":"SHANNON AIRPORT","country":"IRELAND","lat":52.7,"lon":-8.917,"elev":20},"39640":{"name":"GALWAY","country":"IRELAND","lat":53.283,"lon":-9.017,"elev":21},"39650":{"name":"BIRR","country":"IRELAND","lat":53.083,"lon":-7.883,"elev":72},"39670":{"name":"CASEMENT AERODROME","country":"IRELAND","lat":53.3,"lon":-6.433,"elev":93},"39690":{"name":"DUBLIN AIRPORT","country":"IRELAND","lat":53.433,"lon":-6.25,"elev":85},"39700":{"name":"CLAREMORRIS","country":"IRELAND","lat":53.717,"lon":-8.983,"elev":69},"39710":{"name":"MULLINGAR","country":"IRELAND","lat":53.533,"lon":-7.367,"elev":104},"39730":{"name":"CONNAUGHT AIRPORT","country":"IRELAND","lat":53.9,"lon":-8.817,"elev":209},"39740":{"name":"CLONES","country":"IRELAND","lat":54.183,"lon":-7.233,"elev":89},"39760":{"name":"BELMULLET","country":"IRELAND","lat":54.233,"lon":-10,"elev":10},"39800":{"name":"MALIN HEAD","country":"IRELAND","lat":55.367,"lon":-7.333,"elev":25},"40040":{"name":"GUFUSKALAR","country":"ICELAND","lat":64.9,"lon":-23.933,"elev":7},"40050":{"name":"BOLUNGAVIK","country":"ICELAND","lat":66.15,"lon":-23.25,"elev":24},"40130":{"name":"STYKKISHOLMUR","country":"ICELAND","lat":65.083,"lon":-22.733,"elev":8},"40140":{"name":"REYKJANESVITI","country":"ICELAND","lat":63.817,"lon":-22.717,"elev":26},"40180":{"name":"KEFLAVIK","country":"ICELAND","lat":63.967,"lon":-22.6,"elev":50},"40230":{"name":"HORNBJARGSVITI (LH)","country":"ICELAND","lat":66.417,"lon":-22.383,"elev":26},"40300":{"name":"REYKJAVIK","country":"ICELAND","lat":64.132,"lon":-21.9,"elev":61},"40380":{"name":"EYRARBAKKI","country":"ICELAND","lat":63.867,"lon":-21.15,"elev":5},"40450":{"name":"BLONDUOS","country":"ICELAND","lat":65.667,"lon":-20.3,"elev":22},"40480":{"name":"VESTMANNAEYJAR","country":"ICELAND","lat":63.4,"lon":-20.283,"elev":124},"40530":{"name":"BERGSTADIR","country":"ICELAND","lat":65.7,"lon":-19.617,"elev":43},"40560":{"name":"HVERAVELLIR","country":"ICELAND","lat":64.867,"lon":-19.567,"elev":642},"40630":{"name":"AKUREYRI","country":"ICELAND","lat":65.683,"lon":-18.083,"elev":27},"40640":{"name":"KIRKJUBAEJARKLAUSTU","country":"ICELAND","lat":63.783,"lon":-18.067,"elev":38},"40650":{"name":"GRIMSEY","country":"ICELAND","lat":66.533,"lon":-18.017,"elev":16},"40770":{"name":"RAUFARHOFN","country":"ICELAND","lat":66.45,"lon":-15.95,"elev":8},"40820":{"name":"AKURNES","country":"ICELAND","lat":64.3,"lon":-15.217,"elev":21},"40890":{"name":"EGILSSTADIR","country":"ICELAND","lat":65.283,"lon":-14.4,"elev":23},"40970":{"name":"DALATANGI","country":"ICELAND","lat":65.266,"lon":-13.583,"elev":11},"42000":{"name":"DUNDAS","country":"GREENLAND","lat":76.5,"lon":-69,"elev":20},"42020":{"name":"PITUFFIK (THULE A.B","country":"GREENLAND","lat":76.533,"lon":-68.75,"elev":59},"42022":{"name":"JAKOBSHAVN LUFTHAVN","country":"GREENLAND","lat":69.233,"lon":-51.067,"elev":31},"42040":{"name":"MANIITSOQ","country":"GREENLAND","lat":65.417,"lon":-52.933,"elev":15},"42180":{"name":"GODHAVN PORT","country":"GREENLAND","lat":69.333,"lon":-53.583,"elev":24},"42200":{"name":"AASIAAT (EGEDESMIND","country":"GREENLAND","lat":68.7,"lon":-52.85,"elev":41},"42210":{"name":"ILULISSAT (JAKOBSHA","country":"GREENLAND","lat":69.233,"lon":-51.067,"elev":31},"42300":{"name":"SISIMIUT (HOLSTEINS","country":"GREENLAND","lat":66.917,"lon":-53.667,"elev":9},"42310":{"name":"KANGERLUSSUAQ (SDR.","country":"GREENLAND","lat":67.017,"lon":-50.7,"elev":53},"42340":{"name":"SISIMIUT MITTARFIA","country":"GREENLAND","lat":66.95,"lon":-53.717,"elev":8},"42350":{"name":"DYE 1 (RED RIVER)","country":"GREENLAND","lat":66.633,"lon":-52.867,"elev":1439},"42500":{"name":"NUUK (GODTHAAB)","country":"GREENLAND","lat":64.167,"lon":-51.75,"elev":84},"42600":{"name":"PAAMIUT (FREDERIKSH","country":"GREENLAND","lat":62,"lon":-49.667,"elev":15},"42610":{"name":"GROENNEDAL","country":"GREENLAND","lat":61.233,"lon":-48.1,"elev":32},"42700":{"name":"NARSARSUAQ","country":"GREENLAND","lat":61.133,"lon":-45.433,"elev":5},"42720":{"name":"QAQORTOQ (JULIANEHA","country":"GREENLAND","lat":60.717,"lon":-46.05,"elev":34},"42801":{"name":"NARSSAQ","country":"GREENLAND","lat":60.9,"lon":-45.967,"elev":30},"43200":{"name":"DANMARKSHAVN","country":"GREENLAND","lat":76.767,"lon":-18.667,"elev":12},"43300":{"name":"DANEBORG","country":"GREENLAND","lat":74.3,"lon":-20.217,"elev":44},"43390":{"name":"ITTOQQORTOORMIIT (S","country":"GREENLAND","lat":70.483,"lon":-21.95,"elev":69},"43400":{"name":"CAPE TOBIN (AUT)","country":"GREENLAND","lat":70.417,"lon":-21.967,"elev":41},"43500":{"name":"APUTITEQ (AUT)","country":"GREENLAND","lat":67.783,"lon":-32.3,"elev":18},"43600":{"name":"TASIILAQ (AMMASSALI","country":"GREENLAND","lat":65.6,"lon":-37.633,"elev":52},"43900":{"name":"PRINS CHRISTIAN SUN","country":"GREENLAND","lat":60.05,"lon":-43.167,"elev":75},"60090":{"name":"AKRABERG","country":"FAROE ISLANDS","lat":61.4,"lon":-6.667,"elev":102},"60100":{"name":"VAGAR","country":"FAROE ISLANDS","lat":62.067,"lon":-7.283,"elev":88},"60110":{"name":"TORSHAVN","country":"FAROE ISLANDS","lat":62.017,"lon":-6.767,"elev":61},"60120":{"name":"FUGLOY","country":"DENMARK","lat":62.317,"lon":-6.317,"elev":56},"60210":{"name":"HANSTHOLM","country":"DENMARK","lat":57.117,"lon":8.6,"elev":3},"60240":{"name":"THISTED","country":"DENMARK","lat":57.067,"lon":8.717,"elev":8},"60300":{"name":"AALBORG","country":"DENMARK","lat":57.1,"lon":9.85,"elev":13},"60410":{"name":"SKAGEN","country":"DENMARK","lat":57.733,"lon":10.633,"elev":5},"60490":{"name":"HALD V","country":"DENMARK","lat":56.567,"lon":10.1,"elev":89},"60520":{"name":"THYBOROEN","country":"DENMARK","lat":56.7,"lon":8.217,"elev":4},"60580":{"name":"HVIDE SANDE","country":"DENMARK","lat":56,"lon":8.132,"elev":5},"60590":{"name":"LYNGVIG","country":"DENMARK","lat":56.05,"lon":8.1,"elev":3},"60600":{"name":"KARUP","country":"DENMARK","lat":56.3,"lon":9.117,"elev":53},"60620":{"name":"SKIVE","country":"DENMARK","lat":56.55,"lon":9.167,"elev":23},"60700":{"name":"TIRSTRUP","country":"DENMARK","lat":56.317,"lon":10.633,"elev":23},"60710":{"name":"FORNAES (CAPE)","country":"DENMARK","lat":56.45,"lon":10.967,"elev":8},"60740":{"name":"AARHUS SYD","country":"DENMARK","lat":56.083,"lon":10.133,"elev":55},"60790":{"name":"ANHOLT","country":"DENMARK","lat":56.717,"lon":11.517,"elev":4},"60800":{"name":"ESBJERG","country":"DENMARK","lat":55.533,"lon":8.567,"elev":29},"60890":{"name":"SAEDENSTRAND","country":"DENMARK","lat":55.5,"lon":8.4,"elev":11},"60960":{"name":"ROEMOE/JUVRE","country":"DENMARK","lat":55.183,"lon":8.567,"elev":9},"61040":{"name":"BILLUND","country":"DENMARK","lat":55.733,"lon":9.167,"elev":80},"61070":{"name":"HORNS REV.","country":"DENMARK","lat":55.567,"lon":7.333,"elev":1},"61100":{"name":"SKRYDSTRUP","country":"DENMARK","lat":55.233,"lon":9.267,"elev":47},"61180":{"name":"SOENDERBORG","country":"DENMARK","lat":54.967,"lon":9.783,"elev":18},"61190":{"name":"KEGNAES","country":"DENMARK","lat":54.85,"lon":9.983,"elev":17},"61200":{"name":"ODENSE/BELDRINGE","country":"DENMARK","lat":55.483,"lon":10.333,"elev":21},"61230":{"name":"TOROE","country":"DENMARK","lat":55.25,"lon":9.883,"elev":3},"61240":{"name":"TAASINGE","country":"DENMARK","lat":55.017,"lon":10.567,"elev":7},"61410":{"name":"ABED","country":"DENMARK","lat":54.833,"lon":11.333,"elev":9},"61430":{"name":"MARIBO","country":"DENMARK","lat":54.7,"lon":11.45,"elev":4},"61470":{"name":"MON SYDOST","country":"DENMARK","lat":54.8,"lon":12.783,"elev":3},"61490":{"name":"GEDSER ODDE","country":"DENMARK","lat":54.567,"lon":11.967,"elev":8},"61500":{"name":"AVNO(DAFB)","country":"DENMARK","lat":55.083,"lon":11.783,"elev":4},"61560":{"name":"HOLBAEK","country":"DENMARK","lat":55.733,"lon":11.6,"elev":13},"61590":{"name":"ROESNAES","country":"DENMARK","lat":55.75,"lon":10.867,"elev":15},"61600":{"name":"VAERLOESE","country":"DENMARK","lat":55.767,"lon":12.333,"elev":31},"61690":{"name":"GNIBEN","country":"DENMARK","lat":56.017,"lon":11.283,"elev":12},"61700":{"name":"ROSKILDE/TUNE","country":"DENMARK","lat":55.583,"lon":12.133,"elev":43},"61740":{"name":"KOGE/HERFOLGE","country":"DENMARK","lat":55.4,"lon":12.15,"elev":21},"61790":{"name":"MOEN","country":"DENMARK","lat":54.95,"lon":12.533,"elev":17},"61800":{"name":"KOEBENHAVN/KASTRUP","country":"DENMARK","lat":55.617,"lon":12.65,"elev":5},"61900":{"name":"ROENNE","country":"DENMARK","lat":55.067,"lon":14.75,"elev":17},"61910":{"name":"CHRISTIANSO (LGT-H)","country":"DENMARK","lat":55.317,"lon":15.183,"elev":15},"61930":{"name":"HAMMER ODDE","country":"DENMARK","lat":55.3,"lon":14.783,"elev":11},"61990":{"name":"DUEODDE (CAPE)","country":"DENMARK","lat":55,"lon":15.083,"elev":6},"62000":{"name":"YPENBURG(NAFB)","country":"NETHERLANDS","lat":52.033,"lon":4.35,"elev":1},"62060":{"name":"F16-A","country":"NETHERLANDS","lat":54.1,"lon":-4,"elev":28},"62100":{"name":"VALKENBURG","country":"NETHERLANDS","lat":52.183,"lon":4.417,"elev":2},"62250":{"name":"IJMUIDEN","country":"NETHERLANDS","lat":52.467,"lon":4.567,"elev":13},"62300":{"name":"DATSAV3 VIRT STATION (NETHERLANDS)","country":"NETHERLANDS","lat":53.5,"lon":3.15,"elev":0},"62350":{"name":"DE KOOY","country":"NETHERLANDS","lat":52.917,"lon":4.783,"elev":4},"62390":{"name":"F3-FB-1","country":"NETHERLANDS","lat":54.85,"lon":4.7,"elev":49},"62400":{"name":"AMSTERDAM AP SCHIPH","country":"NETHERLANDS","lat":52.3,"lon":4.767,"elev":-4},"62420":{"name":"VLIELAND","country":"NETHERLANDS","lat":53.25,"lon":4.917,"elev":10},"62450":{"name":"DATSAV3 VIRT STATION (NETHERLANDS)","country":"NETHERLANDS","lat":53.5,"lon":3.15,"elev":0},"62500":{"name":"TERSCHELLING(LGT-H)","country":"NETHERLANDS","lat":53.367,"lon":5.217,"elev":27},"62510":{"name":"TERSCHELLING HOORN","country":"NETHERLANDS","lat":53.383,"lon":5.35,"elev":2},"62600":{"name":"DE BILT","country":"NETHERLANDS","lat":52.1,"lon":5.183,"elev":4},"62650":{"name":"SOESTERBERG","country":"NETHERLANDS","lat":52.133,"lon":5.283,"elev":16},"62670":{"name":"STAVOREN AWS","country":"NETHERLANDS","lat":52.883,"lon":5.35,"elev":3},"62680":{"name":"HOUTRIB","country":"NETHERLANDS","lat":52.533,"lon":5.433,"elev":2},"62690":{"name":"LELYSTAD AWS","country":"NETHERLANDS","lat":52.45,"lon":5.533,"elev":-3},"62693":{"name":"VLISSINGEN","country":"NETHERLANDS","lat":51.45,"lon":3.6,"elev":8},"62700":{"name":"LEEUWARDEN","country":"NETHERLANDS","lat":53.217,"lon":5.767,"elev":2},"62750":{"name":"DEELEN","country":"NETHERLANDS","lat":52.067,"lon":5.883,"elev":47},"62790":{"name":"HOOGEVEEN","country":"NETHERLANDS","lat":52.75,"lon":6.517,"elev":16},"62800":{"name":"GRONINGEN AP EELDE","country":"NETHERLANDS","lat":53.133,"lon":6.583,"elev":4},"62900":{"name":"TWENTHE","country":"NETHERLANDS","lat":52.267,"lon":6.9,"elev":35},"63000":{"name":"NOORDHINDER","country":"NETHERLANDS","lat":51.65,"lon":2.567,"elev":3},"63100":{"name":"VLISSINGEN","country":"NETHERLANDS","lat":51.45,"lon":3.6,"elev":10},"63200":{"name":"LE GOEREE","country":"NETHERLANDS","lat":51.933,"lon":3.667,"elev":19},"63230":{"name":"WILHELMINADORP AWS","country":"NETHERLANDS","lat":51.533,"lon":3.9,"elev":1},"63250":{"name":"ZIERIKZEE","country":"NETHERLANDS","lat":51.65,"lon":3.933,"elev":1},"63300":{"name":"HOEK VAN HOLLAND","country":"NETHERLANDS","lat":51.983,"lon":4.1,"elev":14},"63400":{"name":"WOENSDRECHT","country":"NETHERLANDS","lat":51.45,"lon":4.333,"elev":17},"63440":{"name":"ROTTERDAM AP ZESTIE","country":"NETHERLANDS","lat":51.95,"lon":4.45,"elev":-4},"63480":{"name":"CABAUW TOWER","country":"NETHERLANDS","lat":51.967,"lon":4.933,"elev":2},"63500":{"name":"GILZE RIJEN","country":"NETHERLANDS","lat":51.567,"lon":4.933,"elev":13},"63700":{"name":"EINDHOVEN","country":"NETHERLANDS","lat":51.45,"lon":5.417,"elev":22},"63750":{"name":"VOLKEL","country":"NETHERLANDS","lat":51.65,"lon":5.7,"elev":21},"63770":{"name":"ELL AWS","country":"NETHERLANDS","lat":51.2,"lon":5.767,"elev":30},"63800":{"name":"MAASTRICHT AP ZUID","country":"NETHERLANDS","lat":50.917,"lon":5.783,"elev":116},"64000":{"name":"KOKSIJDE","country":"BELGIUM","lat":51.083,"lon":2.65,"elev":9},"64070":{"name":"OOSTENDE (AIRPORT)","country":"BELGIUM","lat":51.2,"lon":2.867,"elev":5},"64080":{"name":"OOSTENDE (PIER)","country":"BELGIUM","lat":51.233,"lon":2.917,"elev":15},"64280":{"name":"SEMMERZAKE","country":"BELGIUM","lat":50.933,"lon":3.667,"elev":37},"64310":{"name":"GENT/INDUSTRIE-ZONE","country":"BELGIUM","lat":51.183,"lon":3.817,"elev":13},"64320":{"name":"CHIEVRES","country":"BELGIUM","lat":50.567,"lon":3.833,"elev":63},"64470":{"name":"UCCLE","country":"BELGIUM","lat":50.8,"lon":4.35,"elev":104},"64490":{"name":"CHARLEROI/GOSSELIES","country":"BELGIUM","lat":50.467,"lon":4.45,"elev":192},"64500":{"name":"ANTWERPEN/DEURNE","country":"BELGIUM","lat":51.2,"lon":4.467,"elev":14},"64510":{"name":"BRUXELLES NATIONAL","country":"BELGIUM","lat":50.9,"lon":4.533,"elev":58},"64560":{"name":"FLORENNES","country":"BELGIUM","lat":50.233,"lon":4.65,"elev":299},"64580":{"name":"BEAUVECHAIN","country":"BELGIUM","lat":50.75,"lon":4.767,"elev":127},"64650":{"name":"SCHAFFEN","country":"BELGIUM","lat":51,"lon":5.067,"elev":54},"64700":{"name":"ST. TRUIDEN (BAFB)","country":"BELGIUM","lat":50.8,"lon":5.2,"elev":75},"64760":{"name":"ST-HUBERT","country":"BELGIUM","lat":50.033,"lon":5.4,"elev":557},"64780":{"name":"BIERSET","country":"BELGIUM","lat":50.65,"lon":5.45,"elev":178},"64785":{"name":"LIEGE/BIERSET(BAFB)","country":"BELGIUM AND LUXEMBOURG","lat":50.633,"lon":5.467,"elev":198},"64790":{"name":"KLEINE BROGEL","country":"BELGIUM","lat":51.167,"lon":5.467,"elev":64},"64810":{"name":"GENK","country":"BELGIUM","lat":50.933,"lon":5.5,"elev":63},"64900":{"name":"SPA/LA SAUVENIERE","country":"BELGIUM","lat":50.483,"lon":5.917,"elev":482},"64901":{"name":"SEMMERZAKE (BAFB)","country":"BELGIUM","lat":50.933,"lon":3.65,"elev":37},"64960":{"name":"ELSENBORN","country":"BELGIUM","lat":50.467,"lon":6.183,"elev":570},"65900":{"name":"LUXEMBOURG/LUXEMBOU","country":"LUXEMBOURG","lat":49.617,"lon":6.217,"elev":376},"66000":{"name":"ST CHRISCHONA","country":"SWITZERLAND","lat":47.567,"lon":7.683,"elev":493},"66045":{"name":"LES EPLATURES","country":"SWITZERLAND","lat":47.083,"lon":6.783,"elev":1053},"66100":{"name":"PAYERNE","country":"SWITZERLAND","lat":46.817,"lon":6.95,"elev":491},"66160":{"name":"FAHY","country":"SWITZERLAND","lat":47.433,"lon":6.95,"elev":597},"66200":{"name":"SCHAFFHAUSEN","country":"SWITZERLAND","lat":47.683,"lon":8.617,"elev":437},"66300":{"name":"BERN-BELP","country":"SWITZERLAND","lat":46.917,"lon":7.5,"elev":505},"66303":{"name":"BERN BELP","country":"SWITZERLAND","lat":46.917,"lon":7.483,"elev":523},"66304":{"name":"SAMEDAN","country":"SWITZERLAND","lat":46.533,"lon":9.883,"elev":5600},"66330":{"name":"BUCHS-SUHR","country":"SWITZERLAND","lat":47.383,"lon":8.083,"elev":387},"66430":{"name":"WYNAU","country":"SWITZERLAND","lat":47.25,"lon":7.783,"elev":416},"66600":{"name":"ZUERICH METEOSCHWEI","country":"SWITZERLAND","lat":47.383,"lon":8.567,"elev":569},"66621":{"name":"GRENCHEN","country":"SWITZERLAND","lat":47.183,"lon":7.417,"elev":441},"66700":{"name":"ZURICH-KLOTEN","country":"SWITZERLAND","lat":47.483,"lon":8.533,"elev":432},"66720":{"name":"ALTDORF","country":"SWITZERLAND","lat":46.867,"lon":8.633,"elev":451},"66800":{"name":"SAENTIS","country":"SWITZERLAND","lat":47.25,"lon":9.35,"elev":2500},"66811":{"name":"ST GALLEN ALTENRHEI","country":"SWITZERLAND","lat":47.483,"lon":9.55,"elev":408},"67000":{"name":"GENEVE-COINTRIN","country":"SWITZERLAND","lat":46.25,"lon":6.133,"elev":416},"67120":{"name":"AIGLE","country":"SWITZERLAND","lat":46.333,"lon":6.917,"elev":383},"67200":{"name":"SION","country":"SWITZERLAND","lat":46.217,"lon":7.333,"elev":481},"67340":{"name":"INTERLAKEN","country":"SWITZERLAND","lat":46.667,"lon":7.867,"elev":579},"67500":{"name":"GUETSCH","country":"SWITZERLAND","lat":46.65,"lon":8.617,"elev":2284},"67530":{"name":"PIOTTA","country":"SWITZERLAND","lat":46.517,"lon":8.683,"elev":1016},"67600":{"name":"LOCARNO-MONTI","country":"SWITZERLAND","lat":46.167,"lon":8.783,"elev":380},"67620":{"name":"LOCARNO-MAGADINO","country":"SWITZERLAND","lat":46.167,"lon":8.883,"elev":198},"67700":{"name":"LUGANO","country":"SWITZERLAND","lat":46,"lon":8.967,"elev":276},"67830":{"name":"SAN BERNARDINO","country":"SWITZERLAND","lat":46.467,"lon":9.183,"elev":1638},"67860":{"name":"CHUR-EMS","country":"SWITZERLAND","lat":46.867,"lon":9.533,"elev":556},"67940":{"name":"ROBBIA","country":"SWITZERLAND","lat":46.35,"lon":10.067,"elev":1078},"69900":{"name":"VADUZ (LIECHTENSTEI","country":"LIECHTENSTEIN","lat":47.133,"lon":9.517,"elev":463},"70020":{"name":"BOULOGNE","country":"FRANCE","lat":50.733,"lon":1.6,"elev":74},"70030":{"name":"LE TOUQUET","country":"FRANCE","lat":50.517,"lon":1.617,"elev":13},"70050":{"name":"ABBEVILLE","country":"FRANCE","lat":50.133,"lon":1.833,"elev":77},"70100":{"name":"DUNKERQUE","country":"FRANCE","lat":51.05,"lon":2.333,"elev":17},"70150":{"name":"LILLE LESQUI","country":"FRANCE","lat":50.567,"lon":3.1,"elev":52},"70170":{"name":"CAMBRAI","country":"FRANCE","lat":50.217,"lon":3.15,"elev":77},"70200":{"name":"PTE DE LA HAGUE","country":"FRANCE","lat":49.717,"lon":-1.933,"elev":12},"70240":{"name":"MAUPERTUS","country":"FRANCE","lat":49.65,"lon":-1.483,"elev":138},"70270":{"name":"CAEN CARPIQUET","country":"FRANCE","lat":49.183,"lon":-0.45,"elev":67},"70280":{"name":"CAP DE LA HEVE","country":"FRANCE","lat":49.5,"lon":0.067,"elev":103},"70290":{"name":"PORT EN BESSIN","country":"FRANCE","lat":49.35,"lon":-0.767,"elev":73},"70310":{"name":"DEAUVILLE","country":"FRANCE","lat":49.367,"lon":0.167,"elev":147},"70370":{"name":"ROUEN","country":"FRANCE","lat":49.383,"lon":1.183,"elev":156},"70380":{"name":"EVREUX/FAUVILLE FAF","country":"FRANCE","lat":49.017,"lon":1.217,"elev":141.1},"70400":{"name":"DIEPPE","country":"FRANCE","lat":49.933,"lon":1.1,"elev":38},"70460":{"name":"LE HAVRE-OCTEVILLE","country":"FRANCE","lat":49.533,"lon":0.083,"elev":94},"70550":{"name":"BEAUVAIS","country":"FRANCE","lat":49.467,"lon":2.117,"elev":111},"70570":{"name":"CREIL (FAFB)","country":"FRANCE","lat":49.25,"lon":2.517,"elev":88},"70610":{"name":"SAINT-QUENTIN","country":"FRANCE","lat":49.817,"lon":3.2,"elev":101},"70700":{"name":"REIMS","country":"FRANCE","lat":49.3,"lon":4.033,"elev":91},"70750":{"name":"CHARLEVILLE","country":"FRANCE","lat":49.783,"lon":4.633,"elev":148},"70881":{"name":"ETAIN","country":"FRANCE","lat":49.233,"lon":5.683,"elev":237.1},"70891":{"name":"CHAMBLEY FRANCE AB","country":"FRANCE","lat":49.033,"lon":5.866,"elev":266},"70900":{"name":"METZ/FRESCATY","country":"FRANCE","lat":49.083,"lon":6.133,"elev":192},"70930":{"name":"METZ-NANCY-LORRAINE","country":"FRANCE","lat":48.983,"lon":6.25,"elev":264},"71000":{"name":"OUESSANT","country":"FRANCE","lat":48.483,"lon":-5.05,"elev":68},"71030":{"name":"POINTE DU RAZ","country":"FRANCE","lat":48.033,"lon":-4.733,"elev":89},"71060":{"name":"LANDIVISIAU (NAVY)","country":"FRANCE","lat":48.517,"lon":-4.15,"elev":115},"71070":{"name":"BRIGNOGAN","country":"FRANCE","lat":48.683,"lon":-4.333,"elev":18},"71090":{"name":"LANVEOC POULMIC","country":"FRANCE","lat":48.283,"lon":-4.433,"elev":82},"71100":{"name":"BREST","country":"FRANCE","lat":48.45,"lon":-4.417,"elev":99},"71170":{"name":"PLOUMANACH PERROS G","country":"FRANCE","lat":48.833,"lon":-3.467,"elev":58},"71180":{"name":"LANNION","country":"FRANCE","lat":48.75,"lon":-3.467,"elev":87},"71190":{"name":"ROSTRENEN","country":"FRANCE","lat":48.233,"lon":-3.3,"elev":262},"71200":{"name":"TREMUSON-ST-BRIEUC","country":"FRANCE","lat":48.533,"lon":-2.85,"elev":138},"71210":{"name":"BREHAT ISLAND","country":"FRANCE","lat":48.85,"lon":-3,"elev":36},"71250":{"name":"DINARD","country":"FRANCE","lat":48.583,"lon":-2.067,"elev":59},"71270":{"name":"GROUIN DE CANCALE","country":"FRANCE","lat":48.717,"lon":-1.85,"elev":41},"71300":{"name":"RENNES","country":"FRANCE","lat":48.067,"lon":-1.733,"elev":43},"71330":{"name":"POINTE DU ROC","country":"FRANCE","lat":48.833,"lon":-1.617,"elev":42},"71390":{"name":"ALENCON","country":"FRANCE","lat":48.433,"lon":0.1,"elev":144},"71400":{"name":"CHATEAUDUN","country":"FRANCE","lat":48.067,"lon":1.383,"elev":127},"71430":{"name":"CHARTRES","country":"FRANCE","lat":48.467,"lon":1.5,"elev":156},"71450":{"name":"TRAPPES","country":"FRANCE","lat":48.767,"lon":2,"elev":168},"71460":{"name":"TOUSSUS LE NOBLE","country":"FRANCE","lat":48.767,"lon":1.1,"elev":161},"71470":{"name":"VILLACOUBLAY","country":"FRANCE","lat":48.767,"lon":2.2,"elev":179},"71490":{"name":"PARIS-ORLY","country":"FRANCE","lat":48.717,"lon":2.383,"elev":90},"71500":{"name":"LE BOURGET","country":"FRANCE","lat":48.967,"lon":2.433,"elev":52},"71530":{"name":"MELUN","country":"FRANCE","lat":48.617,"lon":2.683,"elev":92},"71560":{"name":"PARIS-MONTSOURIS","country":"FRANCE","lat":48.817,"lon":2.333,"elev":77},"71570":{"name":"PARIS-AEROPORT CHAR","country":"FRANCE","lat":49.017,"lon":2.533,"elev":112},"71650":{"name":"CHALONS/VATRY FAFB","country":"FRANCE","lat":48.783,"lon":4.183,"elev":179},"71680":{"name":"TROYES BARBEREY","country":"FRANCE","lat":48.333,"lon":4.017,"elev":118},"71690":{"name":"SAINT-DIZIER","country":"FRANCE","lat":48.633,"lon":4.9,"elev":140},"71790":{"name":"DATSAV3 VIRT STATION (FRANCE)","country":"FRANCE","lat":49.933,"lon":1.1,"elev":0},"71800":{"name":"NANCY-ESSEY","country":"FRANCE","lat":48.683,"lon":6.217,"elev":212},"71810":{"name":"NANCY-OCHEY","country":"FRANCE","lat":48.583,"lon":5.967,"elev":351},"71860":{"name":"DATSAV3 VIRT STATION (FRANCE)","country":"FRANCE","lat":49.933,"lon":1.1,"elev":0},"71900":{"name":"STRASBOURG-ENTZHEIM","country":"FRANCE","lat":48.55,"lon":7.633,"elev":153},"71970":{"name":"MEYENHEIM-COLMAR","country":"FRANCE","lat":47.917,"lon":7.4,"elev":220},"72000":{"name":"PTE DE PENMARCH","country":"FRANCE","lat":47.8,"lon":-4.367,"elev":19},"72010":{"name":"QUIMPER","country":"FRANCE","lat":47.967,"lon":-4.167,"elev":94},"72050":{"name":"LORIENT LAN BIHOUE","country":"FRANCE","lat":47.767,"lon":-3.45,"elev":42},"72070":{"name":"BELLE IIE LE TALUT","country":"FRANCE","lat":47.3,"lon":-3.167,"elev":43},"72170":{"name":"SAINT-NAZAIRE-MONTO","country":"FRANCE","lat":47.317,"lon":-2.167,"elev":3},"72220":{"name":"NANTES","country":"FRANCE","lat":47.15,"lon":-1.6,"elev":27},"72300":{"name":"BEAUCOUZE","country":"FRANCE","lat":47.483,"lon":-0.6,"elev":50},"72350":{"name":"LE MANS","country":"FRANCE","lat":47.933,"lon":0.2,"elev":52},"72400":{"name":"TOURS","country":"FRANCE","lat":47.45,"lon":0.733,"elev":112},"72490":{"name":"ORLEANS","country":"FRANCE","lat":47.983,"lon":1.783,"elev":125},"72550":{"name":"BOURGES","country":"FRANCE","lat":47.067,"lon":2.367,"elev":166},"72553":{"name":"TAVAUX","country":"FRANCE","lat":47.033,"lon":5.417,"elev":202},"72554":{"name":"AVORD","country":"FRANCE","lat":47.05,"lon":2.633,"elev":181},"72570":{"name":"AVORD (FAFB)","country":"FRANCE","lat":47.05,"lon":2.65,"elev":177},"72600":{"name":"NEVERS","country":"FRANCE","lat":47,"lon":3.1,"elev":176},"72650":{"name":"AUXERRE","country":"FRANCE","lat":47.8,"lon":3.55,"elev":212},"72700":{"name":"CHATEAU-CHINON","country":"FRANCE","lat":47.067,"lon":3.933,"elev":598},"72800":{"name":"DIJON","country":"FRANCE","lat":47.267,"lon":5.083,"elev":227},"72830":{"name":"LANGRES","country":"FRANCE","lat":47.85,"lon":5.333,"elev":467},"72880":{"name":"BESANCON","country":"FRANCE","lat":47.25,"lon":5.983,"elev":310},"72920":{"name":"LUXEUIL","country":"FRANCE","lat":47.8,"lon":6.383,"elev":273},"72950":{"name":"BELFORT","country":"FRANCE","lat":47.633,"lon":6.883,"elev":422},"72990":{"name":"BALE-MULHOUSE","country":"FRANCE","lat":47.6,"lon":7.517,"elev":271},"73000":{"name":"L IIE D YEU","country":"FRANCE","lat":46.7,"lon":-2.333,"elev":32},"73060":{"name":"LA ROCHE-SUR-YON","country":"FRANCE","lat":46.7,"lon":-1.383,"elev":90},"73140":{"name":"CHASSIRON","country":"FRANCE","lat":46.05,"lon":-1.417,"elev":22},"73150":{"name":"LA ROCHELLE","country":"FRANCE","lat":46.15,"lon":-1.15,"elev":10},"73160":{"name":"LA ROCHELLE","country":"FRANCE","lat":46.15,"lon":-1.15,"elev":10},"73175":{"name":"DATSAV3 VIRT STATION (FRANCE)","country":"FRANCE","lat":49.933,"lon":1.1,"elev":0},"73300":{"name":"NIORT","country":"FRANCE","lat":46.317,"lon":-0.4,"elev":61},"73350":{"name":"POITIERS","country":"FRANCE","lat":46.583,"lon":0.3,"elev":120},"73540":{"name":"CHATEAUROUX/DEOLS","country":"FRANCE","lat":46.85,"lon":1.717,"elev":164},"73740":{"name":"VICHY","country":"FRANCE","lat":46.167,"lon":3.4,"elev":251},"73790":{"name":"SAINT-YAN","country":"FRANCE","lat":46.417,"lon":4.017,"elev":244},"73850":{"name":"MACON","country":"FRANCE","lat":46.3,"lon":4.8,"elev":217},"73860":{"name":"DOLE-TAVAUX","country":"FRANCE","lat":47.033,"lon":5.417,"elev":195},"73901":{"name":"MARCE","country":"FRANCE","lat":47.55,"lon":-0.3,"elev":61},"74000":{"name":"LA COUBRE","country":"FRANCE","lat":45.7,"lon":-1.233,"elev":6},"74120":{"name":"COGNAC","country":"FRANCE","lat":45.667,"lon":-0.317,"elev":31},"74340":{"name":"LIMOGES","country":"FRANCE","lat":45.867,"lon":1.183,"elev":402},"74380":{"name":"BRIVE","country":"FRANCE","lat":45.15,"lon":1.467,"elev":117},"74600":{"name":"CLERMONT-FERRAND","country":"FRANCE","lat":45.783,"lon":3.167,"elev":330},"74700":{"name":"LE PUY CITY","country":"FRANCE","lat":45.05,"lon":3.9,"elev":714},"74710":{"name":"LE PUY","country":"FRANCE","lat":45.083,"lon":3.767,"elev":833},"74750":{"name":"ST-ETIENNE BOUTHEON","country":"FRANCE","lat":45.533,"lon":4.3,"elev":402},"74760":{"name":"AVIGNON-COUMANT","country":"FRANCE","lat":43.9,"lon":4.9,"elev":37},"74800":{"name":"LYON-BRON","country":"FRANCE","lat":45.717,"lon":4.933,"elev":202},"74810":{"name":"LYON-SATOLAS","country":"FRANCE","lat":45.733,"lon":5.083,"elev":240},"74820":{"name":"AMBERIEU","country":"FRANCE","lat":45.983,"lon":5.333,"elev":253},"74860":{"name":"GRENOBLE-ST-GEOIRS","country":"FRANCE","lat":45.367,"lon":5.333,"elev":386},"74910":{"name":"CHAMBERY/AIX-LES-BA","country":"FRANCE","lat":45.633,"lon":5.867,"elev":235},"74940":{"name":"ANNECY/MEYTHET","country":"FRANCE","lat":45.933,"lon":6.1,"elev":463},"74970":{"name":"BOURG ST-MAURICE","country":"FRANCE","lat":45.617,"lon":6.767,"elev":868},"75000":{"name":"CAP FERRET","country":"FRANCE","lat":44.633,"lon":-1.25,"elev":10},"75020":{"name":"CAZAUX","country":"FRANCE","lat":44.533,"lon":-1.133,"elev":24},"75030":{"name":"BISCAROSSE","country":"FRANCE","lat":44.433,"lon":-1.25,"elev":39},"75100":{"name":"BORDEAUX MERIGNAC","country":"FRANCE","lat":44.833,"lon":-0.683,"elev":61},"75240":{"name":"AGEN","country":"FRANCE","lat":44.183,"lon":0.6,"elev":60},"75300":{"name":"BERGERAC","country":"FRANCE","lat":44.817,"lon":0.517,"elev":51},"75350":{"name":"GOURDON","country":"FRANCE","lat":44.75,"lon":1.4,"elev":261},"75400":{"name":"MONTAUBAN","country":"FRANCE","lat":44.033,"lon":1.383,"elev":108},"75490":{"name":"AURILLAC","country":"FRANCE","lat":44.883,"lon":2.417,"elev":640},"75520":{"name":"RODEZ/MARCILLAC","country":"FRANCE","lat":44.4,"lon":2.483,"elev":580},"75580":{"name":"MILLAU","country":"FRANCE","lat":44.117,"lon":3.017,"elev":720},"75630":{"name":"AVIGNON","country":"FRANCE","lat":43.9,"lon":4.9,"elev":48},"75770":{"name":"MONTELIMAR","country":"FRANCE","lat":44.583,"lon":4.733,"elev":74},"75790":{"name":"ORANGE","country":"FRANCE","lat":44.133,"lon":4.833,"elev":55},"75880":{"name":"ST-AUBAN-SUR-DURANC","country":"FRANCE","lat":44.067,"lon":6,"elev":461},"75910":{"name":"EMBRUN","country":"FRANCE","lat":44.567,"lon":6.5,"elev":876},"76000":{"name":"SOCOA","country":"FRANCE","lat":43.4,"lon":-1.683,"elev":25},"76020":{"name":"BIARRITZ","country":"FRANCE","lat":43.467,"lon":-1.533,"elev":71},"76030":{"name":"DAX","country":"FRANCE","lat":43.683,"lon":-1.067,"elev":33},"76070":{"name":"MONT-DE-MARSAN","country":"FRANCE","lat":43.917,"lon":-0.5,"elev":60},"76100":{"name":"PAU","country":"FRANCE","lat":43.383,"lon":-0.417,"elev":183},"76210":{"name":"TARBES-OSSUN","country":"FRANCE","lat":43.183,"lon":0,"elev":364},"76220":{"name":"AUCH","country":"FRANCE","lat":43.683,"lon":0.6,"elev":128},"76270":{"name":"SAINT GIRONS","country":"FRANCE","lat":43,"lon":1.1,"elev":412},"76300":{"name":"TOULOUSE BLAGNAC","country":"FRANCE","lat":43.633,"lon":1.367,"elev":154},"76310":{"name":"TOULOUSE FRANCAZAL","country":"FRANCE","lat":43.533,"lon":1.367,"elev":166},"76320":{"name":"ALBI","country":"FRANCE","lat":43.917,"lon":2.117,"elev":176},"76350":{"name":"CARCASSONNE","country":"FRANCE","lat":43.217,"lon":2.317,"elev":130},"76380":{"name":"BEZIERS VIAS","country":"FRANCE","lat":43.317,"lon":3.35,"elev":16},"76410":{"name":"SETE","country":"FRANCE","lat":43.4,"lon":3.683,"elev":85},"76415":{"name":"VIAS","country":"FRANCE","lat":43.317,"lon":3.35,"elev":18},"76430":{"name":"MONTPELLIER","country":"FRANCE","lat":43.583,"lon":3.967,"elev":8},"76450":{"name":"NIMES-COURBESSAC","country":"FRANCE","lat":43.867,"lon":4.4,"elev":62},"76460":{"name":"NIMES/GARONS (NAVY)","country":"FRANCE","lat":43.75,"lon":4.417,"elev":96},"76470":{"name":"ISTRES","country":"FRANCE","lat":43.517,"lon":4.917,"elev":24},"76500":{"name":"MARIGNANE","country":"FRANCE","lat":43.45,"lon":5.233,"elev":32},"76520":{"name":"CAP POMEGUES","country":"FRANCE","lat":43.267,"lon":5.3,"elev":70},"76530":{"name":"CAP COURONNE","country":"FRANCE","lat":43.333,"lon":5.05,"elev":27},"76600":{"name":"TOULON","country":"FRANCE","lat":43.1,"lon":5.933,"elev":25},"76610":{"name":"CAP CEPET","country":"FRANCE","lat":43.083,"lon":5.933,"elev":136},"76670":{"name":"HYERES","country":"FRANCE","lat":43.1,"lon":6.15,"elev":4},"76700":{"name":"PORQUEROLLES","country":"FRANCE","lat":43,"lon":6.233,"elev":147},"76840":{"name":"CANNES","country":"FRANCE","lat":43.533,"lon":6.95,"elev":8},"76900":{"name":"NICE","country":"FRANCE","lat":43.65,"lon":7.2,"elev":27},"76950":{"name":"CAPE FERRAT","country":"FRANCE","lat":43.683,"lon":7.333,"elev":144},"77470":{"name":"PERPIGNAN","country":"FRANCE","lat":42.733,"lon":2.867,"elev":47},"77490":{"name":"CAP BEAR","country":"FRANCE","lat":42.517,"lon":3.133,"elev":86},"77530":{"name":"ILE ROUSSE","country":"FRANCE","lat":42.633,"lon":8.917,"elev":153},"77540":{"name":"CALVI","country":"FRANCE","lat":42.533,"lon":8.8,"elev":58},"77560":{"name":"CAPE CAVALLO","country":"FRANCE","lat":42.517,"lon":8.683,"elev":302},"77610":{"name":"AJACCIO","country":"FRANCE","lat":41.917,"lon":8.8,"elev":9},"77650":{"name":"SOLENZARA","country":"FRANCE","lat":41.917,"lon":9.4,"elev":22},"77680":{"name":"LA CHIAPPA","country":"FRANCE","lat":41.6,"lon":9.367,"elev":68},"77700":{"name":"CAP PERTUSATO","country":"FRANCE","lat":41.367,"lon":9.167,"elev":116},"77800":{"name":"FIGARI","country":"FRANCE","lat":41.5,"lon":9.1,"elev":23},"77850":{"name":"CAP CORSE","country":"FRANCE","lat":43,"lon":9.35,"elev":106},"77900":{"name":"BASTIA","country":"FRANCE","lat":42.55,"lon":9.483,"elev":12},"77910":{"name":"CAPE SAGRO","country":"FRANCE","lat":42.8,"lon":9.483,"elev":120},"80001":{"name":"MADEIRA","country":"PORTUGAL","lat":32.7,"lon":-16.767,"elev":60},"80010":{"name":"LA CORUNA","country":"SPAIN","lat":43.367,"lon":-8.417,"elev":67},"80020":{"name":"LA CORUNA/ALVEDRO","country":"SPAIN","lat":43.3,"lon":-8.383,"elev":103},"80110":{"name":"ASTURIAS/AVILES","country":"SPAIN","lat":43.55,"lon":-6.033,"elev":130},"80144":{"name":"ARMILLA","country":"SPAIN","lat":37.133,"lon":-3.633,"elev":718},"80150":{"name":"OVIEDO","country":"SPAIN","lat":43.35,"lon":-5.867,"elev":339},"80210":{"name":"SANTANDER/PARAYAS","country":"SPAIN","lat":43.433,"lon":-3.817,"elev":9},"80230":{"name":"SANTANDER","country":"SPAIN","lat":43.483,"lon":-3.8,"elev":59},"80250":{"name":"BILBAO/SONDICA","country":"SPAIN","lat":43.3,"lon":-2.9,"elev":39},"80270":{"name":"SAN SEBASTIAN/IGUEL","country":"SPAIN","lat":43.3,"lon":-2.033,"elev":259},"80290":{"name":"SAN SEBASTIAN/FUENT","country":"SPAIN","lat":43.35,"lon":-1.8,"elev":8},"80420":{"name":"SANTIAGO/LABACOLLA","country":"SPAIN","lat":42.9,"lon":-8.433,"elev":367},"80450":{"name":"VIGO/PEINADOR","country":"SPAIN","lat":42.233,"lon":-8.633,"elev":255},"80550":{"name":"LEON/VIRGEN DEL CAM","country":"SPAIN","lat":42.583,"lon":-5.65,"elev":914},"80750":{"name":"BURGOS/VILLAFRIA","country":"SPAIN","lat":42.35,"lon":-3.633,"elev":890},"80800":{"name":"VITORIA","country":"SPAIN","lat":42.883,"lon":-2.717,"elev":510},"80840":{"name":"LOGRONO/AGONCILLO","country":"SPAIN","lat":42.45,"lon":-2.333,"elev":363},"80850":{"name":"PAMPLONA/NOAIN","country":"SPAIN","lat":42.767,"lon":-1.633,"elev":453},"81400":{"name":"VALLADOLID/VILLANUB","country":"SPAIN","lat":41.717,"lon":-4.85,"elev":846},"81410":{"name":"VALLADOLID","country":"SPAIN","lat":41.65,"lon":-4.767,"elev":735},"81600":{"name":"ZARAGOZA/AEROPUERTO","country":"SPAIN","lat":41.667,"lon":-1,"elev":258},"81605":{"name":"ZARAGOZA (USAFB)","country":"SPAIN","lat":41.667,"lon":-1.05,"elev":263},"81606":{"name":"ZARAGOZA (MIL/CIV)","country":"SPAIN","lat":41.667,"lon":-1.033,"elev":263},"81750":{"name":"REUS/AEROPUERTO","country":"SPAIN","lat":41.15,"lon":1.167,"elev":76},"81763":{"name":"SABADELL","country":"SPAIN","lat":41.517,"lon":2.1,"elev":250},"81810":{"name":"BARCELONA/AEROPUERT","country":"SPAIN","lat":41.283,"lon":2.067,"elev":6},"81840":{"name":"GERONA/COSTA BRAVA","country":"SPAIN","lat":41.9,"lon":2.767,"elev":129},"82020":{"name":"SALAMANCA/MATACAN","country":"SPAIN","lat":40.95,"lon":-5.5,"elev":794},"82150":{"name":"NAVACERRADA","country":"SPAIN","lat":40.783,"lon":-4.017,"elev":1888},"82210":{"name":"MADRID/BARAJAS RS","country":"SPAIN","lat":40.45,"lon":-3.55,"elev":582},"82230":{"name":"MADRID/CUATRO VIENT","country":"SPAIN","lat":40.383,"lon":-3.783,"elev":687},"82240":{"name":"MADRID/GETAFE","country":"SPAIN","lat":40.3,"lon":-3.717,"elev":617},"82270":{"name":"MADRID/TORREJON","country":"SPAIN","lat":40.483,"lon":-3.45,"elev":611},"82380":{"name":"TORTOSA","country":"SPAIN","lat":40.817,"lon":0.5,"elev":50},"82610":{"name":"CACERES","country":"SPAIN","lat":39.467,"lon":-6.333,"elev":405},"82800":{"name":"ALBACETE/LOS LLANOS","country":"SPAIN","lat":38.95,"lon":-1.85,"elev":704},"82840":{"name":"VALENCIA/AEROPUERTO","country":"SPAIN","lat":39.5,"lon":-0.467,"elev":62},"83060":{"name":"PALMA DE MALLORCA/S","country":"SPAIN","lat":39.55,"lon":2.733,"elev":7},"83140":{"name":"MENORCA/MAHON","country":"SPAIN","lat":39.867,"lon":4.233,"elev":86},"83300":{"name":"BADAJOZ/TALAVERA LA","country":"SPAIN","lat":38.883,"lon":-6.833,"elev":192},"83480":{"name":"CIUDAD REAL","country":"SPAIN","lat":38.983,"lon":-3.917,"elev":629},"83600":{"name":"ALICANTE/EL ALTET","country":"SPAIN","lat":38.283,"lon":-0.55,"elev":31},"83730":{"name":"IBIZA/ES CODOLA","country":"SPAIN","lat":38.883,"lon":1.383,"elev":17},"83900":{"name":"SEVILLA/TABLADA","country":"SPAIN","lat":37.367,"lon":-6,"elev":14},"83910":{"name":"SEVILLA/SAN PABLO","country":"SPAIN","lat":37.417,"lon":-5.9,"elev":31},"83970":{"name":"MORON DE LA FRONTER","country":"SPAIN","lat":37.15,"lon":-5.617,"elev":88},"84100":{"name":"CORDOBA/AEROPUERTO","country":"SPAIN","lat":37.85,"lon":-4.85,"elev":92},"84190":{"name":"GRANADA/AEROPUERTO","country":"SPAIN","lat":37.183,"lon":-3.783,"elev":570},"84290":{"name":"MURCIA/ALCANTARILLA","country":"SPAIN","lat":37.95,"lon":-1.233,"elev":75},"84300":{"name":"MURCIA","country":"SPAIN","lat":38,"lon":-1.167,"elev":62},"84330":{"name":"MURCIA/SAN JAVIER","country":"SPAIN","lat":37.783,"lon":-0.8,"elev":3},"84490":{"name":"ROTA NAS","country":"SPAIN","lat":36.65,"lon":-6.35,"elev":27.1},"84510":{"name":"JEREZ DE LA FRONTER","country":"SPAIN","lat":36.75,"lon":-6.067,"elev":28},"84820":{"name":"MALAGA/AEROPUERTO","country":"SPAIN","lat":36.667,"lon":-4.483,"elev":7},"84870":{"name":"ALMERIA/AEROPUERTO","country":"SPAIN","lat":36.85,"lon":-2.383,"elev":21},"84950":{"name":"GIBRALTAR","country":"GIBRALTAR","lat":36.15,"lon":-5.35,"elev":5},"85010":{"name":"FLORES (ACORES)","country":"PORTUGAL","lat":39.45,"lon":-31.133,"elev":29},"85050":{"name":"HORTA/CASTELO BRANC","country":"PORTUGAL","lat":38.517,"lon":-28.717,"elev":41},"85090":{"name":"LAJES (ACORES)","country":"PORTUGAL","lat":38.767,"lon":-27.1,"elev":54},"85120":{"name":"PONTA DELGADA/NORDE","country":"PORTUGAL","lat":37.733,"lon":-25.7,"elev":72},"85150":{"name":"SANTA MARIA (ACORES","country":"PORTUGAL","lat":36.967,"lon":-25.167,"elev":100},"85210":{"name":"FUNCHAL/S.CATARINA","country":"PORTUGAL","lat":32.683,"lon":-16.767,"elev":49},"85220":{"name":"FUNCHAL","country":"PORTUGAL","lat":32.633,"lon":-16.9,"elev":56},"85240":{"name":"PORTO SANTO","country":"PORTUGAL","lat":33.067,"lon":-16.35,"elev":82},"85320":{"name":"SINTRA/GRANJA","country":"PORTUGAL","lat":38.833,"lon":-9.333,"elev":130},"85340":{"name":"MONTIJO","country":"PORTUGAL","lat":38.7,"lon":-9.033,"elev":11},"85360":{"name":"LISBOA/PORTELA","country":"PORTUGAL","lat":38.767,"lon":-9.133,"elev":114},"85380":{"name":"SAGRES","country":"PORTUGAL","lat":37,"lon":-8.95,"elev":25},"85400":{"name":"MONTE REAL","country":"PORTUGAL","lat":39.833,"lon":-8.883,"elev":54},"85430":{"name":"VIANA DO CASTELO","country":"PORTUGAL","lat":41.7,"lon":-8.8,"elev":18},"85440":{"name":"OVAR/MACEDA","country":"PORTUGAL","lat":40.917,"lon":-8.633,"elev":22},"85450":{"name":"PORTO/PEDRAS RUBRAS","country":"PORTUGAL","lat":41.233,"lon":-8.683,"elev":77},"85480":{"name":"COIMBRA/CERNACHE","country":"SPAIN","lat":40.15,"lon":-8.467,"elev":179},"85490":{"name":"COIMBRA","country":"PORTUGAL","lat":40.2,"lon":-8.417,"elev":140},"85540":{"name":"FARO/AEROPORTO","country":"PORTUGAL","lat":37.017,"lon":-7.967,"elev":8},"85570":{"name":"EVORA","country":"PORTUGAL","lat":38.567,"lon":-7.9,"elev":321},"85580":{"name":"EVORA/C. COORD","country":"PORTUGAL","lat":38.533,"lon":-7.9,"elev":246},"85581":{"name":"OVAR","country":"PORTUGAL","lat":40.917,"lon":-8.633,"elev":18},"85600":{"name":"VISEU","country":"PORTUGAL","lat":40.717,"lon":-7.883,"elev":644},"85610":{"name":"BEJA/B. AEREA","country":"PORTUGAL","lat":38.067,"lon":-7.917,"elev":203},"85620":{"name":"BEJA","country":"PORTUGAL","lat":38.017,"lon":-7.867,"elev":247},"85660":{"name":"VILA REAL","country":"PORTUGAL","lat":41.317,"lon":-7.733,"elev":481},"85670":{"name":"VILA REAL","country":"PORTUGAL","lat":41.267,"lon":-7.717,"elev":562},"85700":{"name":"CASTELO BRANCO","country":"PORTUGAL","lat":39.833,"lon":-7.483,"elev":384},"85710":{"name":"PORTALEGRE","country":"PORTUGAL","lat":39.283,"lon":-7.417,"elev":590},"85750":{"name":"BRAGANCA","country":"PORTUGAL","lat":41.8,"lon":-6.733,"elev":692},"85790":{"name":"LISBOA/GAGO COUTINH","country":"PORTUGAL","lat":38.767,"lon":-9.133,"elev":105},"85940":{"name":"SAL","country":"CAPE VERDE","lat":16.733,"lon":-22.95,"elev":53},"90910":{"name":"ARKONA (CAPE)","country":"GERMANY","lat":54.683,"lon":13.433,"elev":42},"91610":{"name":"BOLTENHAGEN","country":"GERMANY","lat":54,"lon":11.2,"elev":15},"91620":{"name":"SCHWERIN","country":"GERMANY","lat":53.633,"lon":11.417,"elev":59},"91700":{"name":"WARNEMUENDE","country":"GERMANY","lat":54.183,"lon":12.083,"elev":4},"91770":{"name":"TETEROW","country":"GERMANY","lat":53.767,"lon":12.617,"elev":46},"91840":{"name":"GREIFSWALD","country":"GERMANY","lat":54.1,"lon":13.383,"elev":2},"91850":{"name":"GRIEFSWALD/WIECK","country":"GERMANY","lat":54.1,"lon":13.45,"elev":2},"92490":{"name":"BOIZENBURG (AUT)","country":"GERMANY","lat":53.383,"lon":10.717,"elev":45},"92610":{"name":"SEEHAUSEN/ALTMARK","country":"GERMANY","lat":52.9,"lon":11.733,"elev":0},"92700":{"name":"NEURUPPIN","country":"GERMANY","lat":52.9,"lon":12.817,"elev":38},"92800":{"name":"NEUBRANDENBURG","country":"GERMANY","lat":53.6,"lon":13.317,"elev":79},"92910":{"name":"ANGERMUENDE","country":"GERMANY","lat":53.017,"lon":14,"elev":48},"93590":{"name":"GARDELEGEN (AUT)","country":"GERMANY","lat":52.517,"lon":11.4,"elev":47},"93610":{"name":"MAGDEBURG","country":"GERMANY","lat":52.1,"lon":11.583,"elev":79},"93790":{"name":"POTSDAM","country":"GERMANY","lat":52.383,"lon":13.067,"elev":81},"93850":{"name":"BERLIN/SCHONEFELD","country":"GERMANY","lat":52.383,"lon":13.517,"elev":47},"93930":{"name":"LINDENBERG","country":"GERMANY","lat":52.217,"lon":14.117,"elev":98},"93980":{"name":"FRANKFURT/ODER","country":"GERMANY","lat":52.367,"lon":14.533,"elev":48},"94490":{"name":"LEINEFELDE (AUT)","country":"GERMANY","lat":51.383,"lon":10.317,"elev":354},"94530":{"name":"BROCKEN (PEAK)","country":"GERMANY","lat":51.8,"lon":10.617,"elev":1142},"94540":{"name":"WERNIGERODE (AUT)","country":"GERMANY","lat":51.85,"lon":10.767,"elev":234},"94600":{"name":"ARTERN","country":"GERMANY","lat":51.367,"lon":11.3,"elev":164},